STOP_ID,LATITUDE,STOP_NAME,LONGITUDE,TICKETZONE,ROUTEUSSP
"18557",-37.75874000,37-Albion St/Melville Rd (Brunswick West),144.94477100,"1","58"
"18558",-37.75676400,38-Jacobs Reserve/Melville Rd (Brunswick West),144.94515400,"1","58"
"18559",-37.75477900,39-McGregor Ave/Melville Rd (Brunswick West),144.94555000,"1","58"
"18560",-37.75342900,40-Moreland Rd/Melville Rd (Brunswick West),144.94565500,"1","58"
"18561",-37.74951200,41-Woodlands Ave/Melville Rd (Pascoe Vale South),144.94635400,"1","58"
"18562",-37.74661100,42-Reynard St/Melville Rd (Pascoe Vale South),144.94433400,"1","58"
"18563",-37.74412200,43-Princes Tce/Melville Rd (Pascoe Vale South),144.94476700,"1","58"
"18564",-37.74196600,44-Brearley Pde/Melville Rd (Pascoe Vale South),144.94513300,"1","58"
"1292",-37.73161900,38-Renown St/Sydney Rd (Coburg),144.96426600,"1","19"
"16713",-37.74147100,34-Bell St/Sydney Rd (Coburg),144.96647000,"1","19"
"16714",-37.74325900,33-Coburg Market/Sydney Rd (Coburg),144.96614800,"1","19"
"16715",-37.74506500,32-Munro St/Sydney Rd (Coburg),144.96583800,"1","19"
"16717",-37.75207300,30-The Avenue/Sydney Rd (Coburg),144.96463600,"1","19"
"16720",-37.75781500,27-Brunswick Tram Depot/Sydney Rd (Brunswick),144.96363900,"1","19"
"17306",-37.72758000,40-North Coburg Terminus/Sydney Rd (Coburg North),144.96365000,"1","19"
"17307",-37.72989100,39-Mercy College/Sydney Rd (Coburg North),144.96385900,"1","19"
"17308",-37.73211200,38-Carr St/Sydney Rd (Coburg North),144.96462700,"1","19"
"17309",-37.73385600,37-Gaffney St/Sydney Rd (Coburg North),144.96540700,"1","19"
"17310",-37.73553400,36-Rogers St/Sydney Rd (Coburg),144.96607600,"1","19"
"17311",-37.73750500,35-St Pauls Catholic Church/Sydney Rd (Coburg),144.96693000,"1","19"
"17312",-37.74115900,34-Bell St/Sydney Rd (Coburg),144.96666000,"1","19"
"17313",-37.74313600,33-Coburg Market/Sydney Rd (Coburg),144.96635600,"1","19"
"17314",-37.74488800,32-Harding St/Sydney Rd (Coburg),144.96605800,"1","19"
"17315",-37.74847400,31-Edward St/Sydney Rd (Coburg),144.96545000,"1","19"
"17319",-37.75742200,27-Brunswick Tram Depot/Sydney Rd (Brunswick),144.96387600,"1","19"
"1784",-37.73409700,37-Gaffney St/Sydney Rd (Coburg),144.96532100,"1","19"
"18078",-37.75856300,37-Albion St/Melville Rd (Brunswick West),144.94499100,"1","58"
"18079",-37.75662300,38-Jacobs Reserve/Melville Rd (Brunswick West),144.94538500,"1","58"
"18080",-37.75480000,39-Mattingley Cres/Melville Rd (Brunswick West),144.94570800,"1","58"
"18081",-37.75316300,40-Moreland Rd/Melville Rd (Brunswick West),144.94590100,"1","58"
"18082",-37.74931700,41-Woodlands Ave/Melville Rd (Pascoe Vale South),144.94655200,"1","58"
"18083",-37.74639900,42-Reynard St/Melville Rd (Pascoe Vale South),144.94455600,"1","58"
"18084",-37.74392800,43-Princes Tce/Melville Rd (Pascoe Vale South),144.94499900,"1","58"
"18085",-37.74159200,44-Brearley Pde/Melville Rd (Pascoe Vale South),144.94540400,"1","58"
"18086",-37.74011700,45-Bell St/Melville Rd (Pascoe Vale South),144.94559200,"1","58"
"2113",-37.73584000,36-Rogers St/Sydney Rd (Coburg),144.96605600,"1","19"
"378",-37.73043900,39-Mercy College/Sydney Rd (Coburg North),144.96375300,"1","19"
"19360",-37.75566300,131-De Carle St/Moreland Rd (Coburg),144.96635400,"1","6"
"19362",-37.75529200,133-Moreland Station/Cameron St (Coburg),144.96211900,"1","6"
"18588",-37.81575600,25-Brook St/Church St (Hawthorn),145.02098200,"1","48"
"18589",-37.81797100,24-Hill St/Church St (Hawthorn),145.01875300,"1","48"
"18591",-37.81072600,65-Victoria St/Church St (Richmond),145.00062400,"1","78"
"18592",-37.81259200,64-Elizabeth St/Church St (Richmond),145.00016500,"1","78"
"18593",-37.81431800,63-Tweedie Pl/Church St (Richmond),144.99988000,"1","78"
"18594",-37.81596200,62-Highett St/Church St (Richmond),144.99957400,"1","78"
"18595",-37.81872900,61-Bridge Rd/Church St (Richmond),144.99907900,"1","78"
"18596",-37.82030200,60-Abinger St/Church St (Richmond),144.99881000,"1","78"
"18597",-37.82183800,59-St Ignatius Church/Church St (Richmond),144.99854100,"1","78"
"18598",-37.82405800,58-Gipps St/Church St (Richmond),144.99816300,"1","78"
"18599",-37.82578200,57-Swan St/Church St (Richmond),144.99782100,"1","78"
"18601",-37.82897200,55-Adelaide St/Church St (Cremorne),144.99726900,"1","78"
"18602",-37.83033100,54-Cotter St/Church St (Cremorne),144.99718700,"1","78"
"19718",-37.81861800,18-Church St/Bridge Rd (Richmond),144.99942300,"1","75,48"
"18095",-37.81634100,11-Jolimont Station-MCG/Wellington Pde (East Melbourne),144.98481900,"1","75,48"
"18097",-37.81654000,13-Simpson St/Wellington Pde (East Melbourne),144.98698300,"1","75,48"
"18098",-37.81738800,14-Punt Rd/Wellington Pde (Melbourne City),144.98967500,"1","75,48"
"18099",-37.81753300,14-Punt Rd/Bridge Rd (Richmond),144.99021700,"1","75,48"
"18100",-37.81660300,13-Simpson St/Wellington Pde (East Melbourne),144.98697000,"1","75,48"
"18102",-37.81624600,11-Jolimont Station-MCG/Wellington Pde (East Melbourne),144.98399200,"1","75,48"
"18108",-37.81958700,7B-Rod Laver Arena/MCG Gates 1-3 (Melbourne City),144.97913000,"1","70"
"18116",-37.82238400,7C-MCG Gates 4-7/John Cain Arena (Melbourne City),144.98353000,"1","70"
"18118",-37.82413500,7D-Olympic Boulevard (Melbourne City),144.98685700,"1","70"
"18155",-37.82382700,7D-Olympic Boulevard (Melbourne City),144.98675100,"1","70"
"18161",-37.82213700,7C-MCG Gates 4-7/John Cain Arena (Melbourne City),144.98279800,"1","70"
"18172",-37.81934900,7B-Rod Laver Arena/MCG Gates 1-3 (Melbourne City),144.97842100,"1","70"
"18341",-37.81790600,24-Grattan St/Church St (Hawthorn),145.01860700,"1","48"
"18342",-37.81592100,25-Brook St/Church St (Hawthorn),145.02060200,"1","48"
"19706",-37.81790900,15-Epworth Hospital/Bridge Rd (Richmond),144.99380800,"1","75,48"
"19708",-37.81836100,17-Bosisto St/Bridge Rd (Richmond),144.99649900,"1","75,48"
"19709",-37.81847200,18-Church St/Bridge Rd (Richmond),144.99879100,"1","75,48"
"19710",-37.81875000,19-Richmond Town Hall/Bridge Rd (Richmond),145.00137400,"1","75,48"
"19711",-37.81897700,20-Coppin St/Bridge Rd (Richmond),145.00357100,"1","75,48"
"19712",-37.81953500,21-Burnley St/Bridge Rd (Richmond),145.00887300,"1","75,48"
"19713",-37.82009900,22-Yarra Bvd/Bridge Rd (Richmond),145.01397000,"1","75,48"
"19714",-37.82015200,22-Yarra Bvd/Bridge Rd (Richmond),145.01340100,"1","75,48"
"19715",-37.81948000,21-Burnley St/Bridge Rd (Richmond),145.00777200,"1","75,48"
"19716",-37.81908300,20-Coppin St/Bridge Rd (Richmond),145.00397700,"1","75,48"
"19717",-37.81881300,19-Richmond Town Hall/Bridge Rd (Richmond),145.00137200,"1","75,48"
"19719",-37.81821900,17-Waltham St/Bridge Rd (Richmond),144.99663900,"1","75,48"
"19734",-37.81802300,15-Epworth Hospital/Bridge Rd (Richmond),144.99357700,"1","75,48"
"19736",-37.81131300,23-Leslie St/Victoria St (Richmond),145.00761700,"1","12,109"
"19740",-37.81287800,27-Findon St/Barkers Rd (Hawthorn),145.02077500,"1","109"
"20778",-37.82088400,25-St James Park/Burwood Rd (Hawthorn),145.02102700,"1","75"
"20779",-37.82095800,25-St James Park/Burwood Rd (Hawthorn),145.02111500,"1","75"
"20780",-37.82145300,26-Hawthorn Railway Station/Burwood Rd (Hawthorn),145.02481700,"1","75"
"20781",-37.82128700,26-Hawthorn Railway Station/Burwood Rd (Hawthorn),145.02458300,"1","75"
"20782",-37.82174700,27-Burwood Rd/Power St (Hawthorn),145.02627500,"1","75"
"20783",-37.82146800,27-Power St/Burwood Rd (Hawthorn),145.02628200,"1","75"
"20784",-37.82477800,28-Wattle Rd/Power St (Hawthorn),145.02586500,"1","75"
"20785",-37.82491000,28-Wattle Rd/Power St (Hawthorn),145.02571300,"1","75"
"22560",-37.81995000,23-Hawthorn Bridge/Bridge Rd (Hawthorn),145.01637100,"1","75,48"
"22561",-37.82001900,23-Hawthorn Bridge/Bridge Rd (Hawthorn),145.01622100,"1","75,48"
"22903",-37.81816700,7A-William Barak Bridge/Melbourne Park (Melbourne City),144.97620400,"1","70"
"22904",-37.81832300,7A-William Barak Bridge/Melbourne Park (Melbourne City),144.97582500,"1","70"
"19087",-37.81225400,64-Baker St/Church St (Richmond),145.00042400,"1","78"
"19090",-37.81842600,61-Bridge Rd/Church St (Richmond),144.99929200,"1","78"
"19091",-37.82032200,60-Abinger St/Church St (Richmond),144.99895700,"1","78"
"19092",-37.82174200,59-St Ignatius Church/Church St (Richmond),144.99871400,"1","78"
"19093",-37.82372700,58-Gipps St/Church St (Richmond),144.99835400,"1","78"
"19094",-37.82555100,57-Swan St/Church St (Richmond),144.99803200,"1","78"
"19095",-37.82663800,56-East Richmond Railway Station/Church St (Richmond),144.99784300,"1","78"
"19096",-37.82876800,55-Gibbons St/Church St (Richmond),144.99745600,"1","78"
"19097",-37.83047200,54-Balmain St/Church St (Richmond),144.99696700,"1","78"
"19278",-37.82467700,8-Richmond Station/Swan St (Richmond),144.98905700,"1","70"
"19279",-37.82524000,9-Lennox St/Swan St (Richmond),144.99348400,"1","70"
"19280",-37.82552700,10-Swan Street Shopping Centre/Swan St (Richmond),144.99605500,"1","70"
"19281",-37.82576000,11-Church St/Swan St (Richmond),144.99809400,"1","70"
"19282",-37.82625900,12-Coppin St/Swan St (Richmond),145.00258000,"1","70"
"19283",-37.82650600,13-Edinburgh St/Swan St (Burnley),145.00490200,"1","70"
"19294",-37.82679100,14-Burnley St/Swan St (Burnley),145.00736000,"1","70"
"19295",-37.82704800,15-Stawell St/Swan St (Burnley),145.00978400,"1","70"
"19296",-37.82726200,16-Park Gr/Swan St (Burnley),145.01177800,"1","70"
"19297",-37.82746800,17-Madden Gr/Swan St (Burnley),145.01651100,"1","70"
"19298",-37.82666300,18-Yarra Bvd/Swan St (Burnley),145.01955400,"1","70"
"19299",-37.82739300,29-Power St/Riversdale Rd (Hawthorn),145.02544300,"1","75,70"
"19384",-37.81082900,22-McKay St/Victoria St (Richmond),145.00404100,"1","12,109"
"19386",-37.81144100,24-Burnley St/Victoria St (Richmond),145.01038500,"1","12,109"
"19387",-37.81176800,25-River Bvd/Victoria St (Richmond),145.01323900,"1","109"
"19389",-37.81271300,27-Findon Cres/Barkers Rd (Kew),145.02062000,"1","109"
"19454",-37.82762300,29-Power St/Riversdale Rd (Hawthorn),145.02570900,"1","75,70"
"19456",-37.82642000,18-Yarra Bvd/Swan St (Burnley),145.02061700,"1","70"
"19457",-37.82724800,17-Madden Gr/Swan St (Burnley),145.01684600,"1","70"
"19458",-37.82719800,16-Park Gr/Swan St (Burnley),145.01228000,"1","70"
"19459",-37.82690100,15-Stawell St/Swan St (Richmond),145.00960700,"1","70"
"19460",-37.82659300,14-Burnley St/Swan St (Richmond),145.00687700,"1","70"
"19461",-37.82639200,13-Edinburgh St/Swan St (Richmond),145.00511000,"1","70"
"19462",-37.82610200,12-Coppin St/Swan St (Richmond),145.00234500,"1","70"
"19463",-37.82561000,11-Church St/Swan St (Richmond),144.99778000,"1","70"
"19464",-37.82538000,10-Swan Street Shopping Centre/Swan St (Richmond),144.99590000,"1","70"
"19465",-37.82509200,9-Lennox St/Swan St (Richmond),144.99328400,"1","70"
"19466",-37.82453200,8-Richmond Station/Swan St (Cremorne),144.98843600,"1","70"
"18782",-37.84216600,135-Woorigoleen Rd/Toorak Rd (Toorak),145.01758300,"1","58"
"18783",-37.84246100,136-Irving Rd/Toorak Rd (Toorak),145.02008600,"1","58"
"18784",-37.84284400,137-Kooyong Rd/Toorak Rd (Toorak),145.02306500,"1","58"
"18785",-37.84323100,138-Moonga Rd/Toorak Rd (Toorak),145.02624800,"1","58"
"18786",-37.84361500,139-Glenbervie Rd/Toorak Rd (Toorak),145.02981700,"1","58"
"18942",-37.85005200,39-Irving Rd/Malvern Rd (Toorak),145.01867900,"1","72"
"18943",-37.85040300,40-Kooyong Rd/Malvern Rd (Toorak),145.02130600,"1","72"
"18944",-37.85076300,41-Albany Rd/Malvern Rd (Toorak),145.02395600,"1","72"
"18945",-37.85105200,42-Lauriston Girls School/Malvern Rd (Toorak),145.02614100,"1","72"
"18946",-37.85154700,43-Glenferrie Rd/Malvern Rd (Toorak),145.02986700,"1","72"
"18947",-37.85189700,44-Plant St/Malvern Rd (Malvern),145.03249500,"1","72"
"19013",-37.87993400,54-Glen Eira Rd/Hawthorn Rd (Caulfield North),145.02340400,"1","64"
"19014",-37.87721200,53-Northcote Ave/Hawthorn Rd (Caulfield North),145.02392000,"1","64"
"19015",-37.87493900,52-Halstead St/Hawthorn Rd (Caulfield North),145.02435600,"1","64"
"19016",-37.87244100,51-Balaclava Rd/Hawthorn Rd (Caulfield North),145.02482000,"1","64,16"
"19017",-37.86951400,50-Inkerman Rd/Hawthorn Rd (Caulfield North),145.02541000,"1","64,16"
"19018",-37.86769000,49-Arthur St/Hawthorn Rd (Caulfield North),145.02575400,"1","64,16"
"19019",-37.86542800,48-Hawthorn Rd/Dandenong Rd (Caulfield North),145.02576900,"1","64"
"19023",-37.86455800,44-Bailey Ave/Dandenong Rd (Armadale),145.02383700,"1","64"
"19024",-37.86378900,43-Egerton Rd/Dandenong Rd (Armadale),145.02205000,"1","64"
"19025",-37.86257000,42-Kooyong Rd/Dandenong Rd (Armadale),145.01921900,"1","64"
"19026",-37.86192300,41-Cantala Ave/Dandenong Rd (Armadale),145.01773500,"1","64"
"19062",-37.85208400,44-Plant St/Malvern Rd (Malvern),145.03288800,"1","72"
"19063",-37.85172300,43-Glenferrie Rd/Malvern Rd (Malvern),145.03020400,"1","72"
"19064",-37.85119000,42-Lauriston Girls School/Malvern Rd (Armadale),145.02633100,"1","72"
"19065",-37.85087900,41-Murray St/Malvern Rd (Malvern),145.02391800,"1","72"
"19066",-37.85058800,40-Kooyong Rd/Malvern Rd (Toorak),145.02159600,"1","72"
"19067",-37.85015600,39-Densham Rd/Malvern Rd (Toorak),145.01842600,"1","72"
"18640",-37.87172600,46-Kooyong Rd/Balaclava Rd (Caulfield North),145.01762100,"1","3/3a,16"
"18641",-37.87214500,47-Elmhurst Rd/Balaclava Rd (Caulfield North),145.02109900,"1","3/3a,16"
"18645",-37.87257000,51-Hawthorn Rd/Balaclava Rd (Caulfield North),145.02443000,"1","3/3a,16"
"18646",-37.87308100,52-Caulfield Park Bowling Club/Balaclava Rd (Caulfield North),145.02854400,"1",3/3a
"18647",-37.87339600,53-Caulfield Park/Balaclava Rd (Caulfield North),145.03125200,"1",3/3a
"10311",-37.86245500,45-Glenferrie Rd/Wattletree Rd (Malvern),145.02850800,"1","5"
"10371",-37.86206900,44-Duncraig Ave/Wattletree Rd (Armadale),145.02538200,"1","5"
"11285",-37.86171000,43-Egerton Rd/Wattletree Rd (Armadale),145.02275400,"1","5"
"12599",-37.86134600,42-Kooyong Rd/Wattletree Rd (Armadale),145.01989900,"1","5"
"16743",-37.85511900,40-Armadale Station/High St (Armadale),145.01824700,"1","6"
"16744",-37.85541900,41-Kooyong Rd/High St (Armadale),145.02058100,"1","6"
"16745",-37.85583200,42-Huntingtower Rd/High St (Armadale),145.02367300,"1","6"
"16746",-37.85612200,43-Mercer Rd/High St (Armadale),145.02593800,"1","6"
"16747",-37.85653600,44-Glenferrie Rd/High St (Malvern),145.02916600,"1","6"
"16748",-37.85694200,45-De La Salle College/High St (Malvern),145.03238300,"1","6"
"16766",-37.85715700,45-De La Salle College/High St (Malvern),145.03288900,"1","6"
"16767",-37.85670400,44-Glenferrie Rd/High St (Malvern),145.02950300,"1","6"
"16768",-37.85628900,43-Mercer Rd/High St (Armadale),145.02622900,"1","6"
"16769",-37.85599600,42-Huntingtower Rd/High St (Armadale),145.02382700,"1","6"
"16770",-37.85558500,41-Kooyong Rd/High St (Armadale),145.02080400,"1","6"
"16771",-37.85527400,40-Armadale Station/High St (Armadale),145.01840200,"1","6"
"20549",-37.84184000,64-Power St/Glenferrie Rd (Kooyong),145.03196700,"1","16"
"20550",-37.84004100,65-Warra St/Glenferrie Rd (Toorak),145.03214000,"1","16"
"20551",-37.83933300,65-Kooyong Railway Station/Glenferrie Rd (Kooyong),145.03243100,"1","16"
"20552",-37.83849400,66-Kooyong Tennis Centre/Glenferrie Rd (Toorak),145.03235100,"1","16"
"20553",-37.83833600,66-Vision Australia/Glenferrie Rd (Kooyong),145.03261700,"1","16"
"20554",-37.83555700,67-Gardiner Rd/Glenferrie Rd (Hawthorn),145.03294000,"1","16"
"20555",-37.83545100,67-Gardiner Rd/Glenferrie Rd (Hawthorn),145.03309100,"1","16"
"20556",-37.83342700,68-Callantina Rd/Glenferrie Rd (Hawthorn),145.03330400,"1","16"
"18426",-37.88012800,54-Glen Eira Rd/Hawthorn Rd (Caulfield),145.02320500,"1","64"
"18427",-37.87748800,53-Crotonhurst Ave/Hawthorn Rd (Caulfield North),145.02371900,"1","64"
"18428",-37.87525100,52-Halstead St/Hawthorn Rd (Caulfield North),145.02415400,"1","64"
"18429",-37.87288800,51-Balaclava Rd/Hawthorn Rd (Caulfield North),145.02460400,"1","64"
"18430",-37.86969900,50-Inkerman Rd/Hawthorn Rd (Caulfield North),145.02518900,"1","64,16"
"18431",-37.86799200,49-Wanda Rd/Hawthorn Rd (Caulfield North),145.02551900,"1","64,16"
"18432",-37.86589900,48A-Dandenong Rd/Hawthorn Rd (Caulfield North),145.02590400,"1","64,16"
"18437",-37.86461800,44-Bailey Ave/Dandenong Rd (Armadale),145.02367700,"1","64"
"18438",-37.86382200,43-Matlock Ct/Dandenong Rd (Armadale),145.02191300,"1","64"
"18439",-37.86250900,42-Kooyong Rd/Dandenong Rd (Armadale),145.01883400,"1","64"
"18440",-37.86196600,41-Cantala Ave/Dandenong Rd (Armadale),145.01764300,"1","64"
"18462",-37.87364400,53-Caulfield Park/Balaclava Rd (Caulfield North),145.03204100,"1",3/3a
"18463",-37.87313700,52-Caulfield Park Bowling Club/Balaclava Rd (Caulfield North),145.02814400,"1",3/3a
"18464",-37.87279500,51-Hawthorn Rd/Balaclava Rd (Caulfield North),145.02494700,"1",3/3a
"18468",-37.87229900,47-Caulfield Junior College/Balaclava Rd (Caulfield North),145.02117500,"1","3/3a,16"
"20523",-37.86583600,48-Hawthorn Rd/Dandenong Rd (Malvern),145.02644000,"1","16"
"20524",-37.86605700,48-Dandenong Rd/Glenferrie Rd (Malvern),145.02781000,"1","16"
"20525",-37.86605700,52-Dandenong Rd/Glenferrie Rd (Malvern),145.02781000,"1","16"
"20526",-37.86526400,53-Malvern Railway Station/Glenferrie Rd (Malvern),145.02777400,"1","16"
"20527",-37.86418000,53-Malvern Railway Station/Glenferrie Rd (Malvern),145.02815600,"1","16"
"20528",-37.86247800,54-Wattletree Rd/Glenferrie Rd (Malvern),145.02825800,"1","16"
"20529",-37.86215800,54-Wattletree Rd/Glenferrie Rd (Malvern),145.02850500,"1","16"
"20530",-37.86114800,55-Llaneast St/Glenferrie Rd (Malvern),145.02846400,"1","16"
"20531",-37.86103400,55-Edsall St/Glenferrie Rd (Malvern),145.02867100,"1","16"
"20532",-37.85900000,56-Malvern Tram Depot/Glenferrie Rd (Malvern),145.02882800,"1","16"
"20533",-37.85884100,56-Malvern Tram Depot/Glenferrie Rd (Malvern),145.02904800,"1","16"
"20534",-37.85682500,57-High St/Glenferrie Rd (Malvern),145.02918100,"1","16"
"20535",-37.85649600,57-High St/Glenferrie Rd (Malvern),145.02942900,"1","16"
"20536",-37.85407400,58-Bell St/Glenferrie Rd (Malvern),145.02958400,"1","16"
"20537",-37.85409500,58-Sorrett Ave/Glenferrie Rd (Malvern),145.02977700,"1","16"
"20538",-37.85183600,59-Malvern Rd/Glenferrie Rd (Malvern),145.02993900,"1","16"
"20539",-37.85152500,59-Malvern Rd/Glenferrie Rd (Malvern),145.03018600,"1","16"
"20540",-37.84966200,60-Stonnington Pl/Glenferrie Rd (Malvern),145.03036100,"1","16"
"20541",-37.84967400,60-Stonnington Pl/Glenferrie Rd (Malvern),145.03050800,"1","16"
"20542",-37.84770400,61-Moorakyne Ave/Glenferrie Rd (Malvern),145.03073100,"1","16"
"20543",-37.84773400,61-Moorakyne Ave/Glenferrie Rd (Malvern),145.03087800,"1","16"
"20544",-37.84573700,62-Mayfield Ave/Glenferrie Rd (Malvern),145.03110200,"1","16"
"20545",-37.84536200,62-Mayfield Ave/Glenferrie Rd (Malvern),145.03132800,"1","16"
"20546",-37.84394000,63-Toorak Rd/Glenferrie Rd (Malvern),145.03143400,"1","16"
"20547",-37.84364600,63-Toorak Rd/Glenferrie Rd (Kooyong),145.03165700,"1","16"
"20548",-37.84247500,64-Mernda Rd/Glenferrie Rd (Kooyong),145.03166600,"1","16"
"20557",-37.83322300,68-Callantina Rd/Glenferrie Rd (Hawthorn),145.03350200,"1","16"
"20558",-37.83138800,69-South St/Glenferrie Rd (Hawthorn),145.03366500,"1","16"
"20559",-37.83111200,69-South St/Glenferrie Rd (Hawthorn),145.03387700,"1","16"
"21060",-37.87189400,46-Kooyong Rd/Balaclava Rd (Caulfield North),145.01795700,"1","3/3a,16"
"398",-37.86094200,41-Armadale St/Wattletree Rd (Armadale),145.01779600,"1","5"
"409",-37.86118900,42-Kooyong Rd/Wattletree Rd (Armadale),145.01961900,"1","5"
"19300",-37.82821100,30-Through St/Riversdale Rd (Hawthorn),145.02906800,"1","75,70"
"19301",-37.82850600,31-Fordholm Rd/Riversdale Rd (Hawthorn),145.03162800,"1","75,70"
"19333",-37.84204000,135-Woorigoleen Rd/Toorak Rd (Toorak),145.01754100,"1","58"
"19334",-37.84231400,136-Irving Rd/Toorak Rd (Toorak),145.01995400,"1","58"
"19335",-37.84268700,137-Kooyong Rd/Toorak Rd (Toorak),145.02281900,"1","58"
"19336",-37.84316700,138-Moonga Rd/Toorak Rd (Toorak),145.02669300,"1","58"
"19338",-37.84361800,139-Glenferrie Rd/Toorak Rd (Toorak),145.02998800,"1","58"
"19450",-37.82863500,32-Glenferrie Rd/Riversdale Rd (Hawthorn),145.03395400,"1","75,70"
"19451",-37.82835100,31-Fordholm Rd/Riversdale Rd (Hawthorn),145.03150700,"1","75,70"
"19452",-37.82807600,30-Through St/Riversdale Rd (Hawthorn),145.02908300,"1","75,70"
"8345",-37.86314800,47-Cabrini Hospital/Wattletree Rd (Malvern),145.03385500,"1","5"
"9156",-37.86282800,46-Soudan St/Wattletree Rd (Malvern),145.03138600,"1","5"
"940",-37.86159200,43-Egerton Rd/Wattletree Rd (Armadale),145.02270000,"1","5"
"946",-37.86189300,44-Duncraig Ave/Wattletree Rd (Armadale),145.02509100,"1","5"
"947",-37.86227800,45-Glenferrie Rd/Wattletree Rd (Malvern),145.02812700,"1","5"
"950",-37.86265800,46-Nicholls St/Wattletree Rd (Malvern),145.03095800,"1","5"
"955",-37.86296000,47-Cabrini Hospital/Wattletree Rd (Malvern),145.03339400,"1","5"
"46517",-37.86535900,48-Hawthorn Rd/Dandenong Rd (Caulfield North),145.02541900,"1","64"
"18979",-37.88295700,42-Hotham St/Brighton Rd (Balaclava),144.99650100,"1","67"
"18980",-37.88380000,43-Brighton Rd/Glenhuntly Rd (Elsternwick),144.99784200,"1","67"
"18981",-37.88415000,44-Elsternwick Railway Station/Glenhuntly Rd (Elsternwick),145.00038000,"1","67"
"18982",-37.88461300,45-Elsternwick Shopping Centre/Glenhuntly Rd (Elsternwick),145.00381200,"1","67"
"18983",-37.88486200,46-Orrong Rd/Glenhuntly Rd (Elsternwick),145.00570500,"1","67"
"18984",-37.88527100,47-Shoobra Rd/Glenhuntly Rd (Elsternwick),145.00912700,"1","67"
"18985",-37.88564900,48-Parkside St/Glenhuntly Rd (Elsternwick),145.01226700,"1","67"
"18986",-37.88596300,49-Kooyong Rd/Glenhuntly Rd (Elsternwick),145.01487400,"1","67"
"18987",-37.88639100,50-Royal Pde/Glenhuntly Rd (Caulfield),145.01833000,"1","67"
"19000",-37.91107800,67-Rogers Ave/Hawthorn Rd (Brighton East),145.01753100,"1","64"
"19001",-37.90851700,66-Union St/Hawthorn Rd (Brighton East),145.01796400,"1","64"
"19002",-37.90637000,65-Davey Ave/Hawthorn Rd (Brighton East),145.01832900,"1","64"
"19003",-37.90378200,64-Taylor St/Hawthorn Rd (Brighton East),145.01880800,"1","64"
"19004",-37.90119600,63-North Rd/Hawthorn Rd (Brighton East),145.01933200,"1","64"
"19005",-37.89896900,62-Gardenvale Rd/Hawthorn Rd (Caulfield South),145.01980100,"1","64"
"19006",-37.89655200,61-Stone St/Hawthorn Rd (Caulfield South),145.02025300,"1","64"
"19007",-37.89488100,60-Dover St/Hawthorn Rd (Caulfield South),145.02054800,"1","64"
"19008",-37.89304000,59-Princes Park/Hawthorn Rd (Caulfield South),145.02090400,"1","64"
"19009",-37.88960800,58-Sycamore St/Hawthorn Rd (Caulfield South),145.02155300,"1","64"
"19010",-37.88666100,57-Glenhuntly Rd/Hawthorn Rd (Caulfield),145.02209800,"1","64"
"19011",-37.88483800,56-Briggs St/Hawthorn Rd (Caulfield),145.02244300,"1","64"
"19012",-37.88244900,55-Sylverly Gr/Hawthorn Rd (Caulfield North),145.02291600,"1","64"
"19070",-37.88680900,51-Hawthorn Rd/Glenhuntly Rd (Caulfield),145.02176400,"1","67"
"19071",-37.88711000,52-Jasmine St/Glenhuntly Rd (Caulfield),145.02412100,"1","67"
"19072",-37.88745100,53-Glenhuntly Tram Depot/Glenhuntly Rd (Caulfield),145.02675000,"1","67"
"19073",-37.88767300,54-Bambra Rd/Glenhuntly Rd (Caulfield),145.02868900,"1","67"
"19074",-37.88793100,55-Fallon St/Glenhuntly Rd (Caulfield),145.03061500,"1","67"
"19075",-37.88825100,56-Kambrook Rd/Glenhuntly Rd (Caulfield),145.03308500,"1","67"
"18370",-37.88286400,42-Hotham St/Brighton Rd (St Kilda East),144.99634400,"1","67"
"18371",-37.88390400,43-Brighton Rd/Glenhuntly Rd (Elsternwick),144.99757800,"1","67"
"18372",-37.88430600,44-Elsternwick Railway Station/Glenhuntly Rd (Elsternwick),145.00055700,"1","67"
"18373",-37.88475100,45-Elsternwick Shopping Centre/Glenhuntly Rd (Elsternwick),145.00394500,"1","67"
"18374",-37.88505100,46-Orrong Rd/Glenhuntly Rd (Elsternwick),145.00621100,"1","67"
"18375",-37.88538800,47-Shoobra Rd/Glenhuntly Rd (Elsternwick),145.00911300,"1","67"
"18376",-37.88575600,48-Parkside St/Glenhuntly Rd (Elsternwick),145.01224100,"1","67"
"18392",-37.88610200,49-Kooyong Rd/Glenhuntly Rd (Elsternwick),145.01508600,"1","67"
"18393",-37.88649800,50-Royal Pde/Glenhuntly Rd (Caulfield),145.01825900,"1","67"
"18394",-37.88697800,51-Hawthorn Rd/Glenhuntly Rd (Caulfield),145.02218100,"1","67"
"18395",-37.88721800,52-Jasmine St/Glenhuntly Rd (Caulfield),145.02414100,"1","67"
"18396",-37.88761100,53-Glenhuntly Tram Depot/Glenhuntly Rd (Caulfield),145.02711000,"1","67"
"18397",-37.88783900,54-Bambra Rd/Glenhuntly Rd (Caulfield),145.02890000,"1","67"
"18398",-37.88810800,55-Fallon St/Glenhuntly Rd (Caulfield),145.03098600,"1","67"
"18399",-37.88841900,56-Kean St/Glenhuntly Rd (Caulfield),145.03343300,"1","67"
"18412",-37.91422200,68-East Brighton/Hawthorn Rd (Brighton East),145.01689000,"1","64"
"18413",-37.91109400,67-Howell St/Hawthorn Rd (Brighton East),145.01739500,"1","64"
"18414",-37.90873000,66-Union St/Hawthorn Rd (Brighton East),145.01776500,"1","64"
"18415",-37.90657400,65-Davey Ave/Hawthorn Rd (Brighton East),145.01814100,"1","64"
"18416",-37.90409400,64-Taylor St/Hawthorn Rd (Brighton East),145.01859500,"1","64"
"18417",-37.90157000,63-North Rd/Hawthorn Rd (Brighton East),145.01907200,"1","64"
"18418",-37.89949600,62-Gardenvale Rd/Hawthorn Rd (Caulfield South),145.01952500,"1","64"
"18419",-37.89670200,61-Raynes St/Hawthorn Rd (Caulfield South),145.02006700,"1","64"
"18420",-37.89505800,60-Dover St/Hawthorn Rd (Caulfield South),145.02037200,"1","64"
"18421",-37.89313500,59-Princes Park/Hawthorn Rd (Caulfield South),145.02068500,"1","64"
"18422",-37.88993800,58-Sycamore St/Hawthorn Rd (Caulfield South),145.02132800,"1","64"
"18423",-37.88708100,57-Glenhuntly Rd/Hawthorn Rd (Caulfield South),145.02184800,"1","64"
"18424",-37.88458400,56-Lockhart St/Hawthorn Rd (Caulfield),145.02234700,"1","64"
"18425",-37.88258000,55-Sylverly Gr/Hawthorn Rd (Caulfield),145.02271900,"1","64"
"18512",-37.77245200,34-Maribyrnong Rd/Ascot Vale Rd (Moonee Ponds),144.92402400,"1","82"
"18513",-37.77234000,35-Moore St/Maribyrnong Rd (Moonee Ponds),144.92123400,"1","82"
"18514",-37.77202600,36-Bayview Tce/Maribyrnong Rd (Moonee Ponds),144.91825700,"1","82"
"18515",-37.77181200,37-Union Rd/Maribyrnong Rd (Moonee Ponds),144.91632200,"1","82"
"18516",-37.77141500,38-Ferguson St/Maribyrnong Rd (Ascot Vale),144.91275700,"1","82,57"
"18517",-37.77102700,39-Bowen St/Maribyrnong Rd (Moonee Ponds),144.90918000,"1","82,57"
"18518",-37.77063100,40-Epsom Rd/Maribyrnong Rd (Ascot Vale),144.90567200,"1","82,57"
"18519",-37.77187000,37-Maribyrnong Rd/Union Rd (Ascot Vale),144.91607000,"1","57"
"18520",-37.77370300,36-St Leonards Rd/Union Rd (Ascot Vale),144.91578000,"1","57"
"18521",-37.77610300,35-Munro St/Union Rd (Ascot Vale),144.91539500,"1","57"
"18522",-37.77862700,34-Burrowes St/Union Rd (Ascot Vale),144.91494900,"1","57"
"18524",-37.78266800,32-Sandown Rd/Epsom Rd (Ascot Vale),144.91667500,"1","57"
"18525",-37.78442500,31-Racing Victoria/400 Epsom Rd (Flemington),144.91820400,"1","57"
"18526",-37.78591300,30-Flemington Racecourse/Epsom Rd (Flemington),144.91978600,"1","57"
"18527",-37.78744600,29-Flemington Racecourse/Racecourse Rd (Flemington),144.92188900,"1","57"
"18528",-37.78774100,28-Smithfield Rd/Racecourse Rd (Flemington),144.92534500,"1","57"
"1083",-37.76969900,42-Clyde St/Raleigh Rd (Maribyrnong),144.89884100,"1","82,57"
"13995",-37.76889100,44-Barb St/Raleigh Rd (Maribyrnong),144.89198500,"1","82,57"
"15559",-37.76862900,45-Randall St/Raleigh Rd (Maribyrnong),144.88893800,"1","82,57"
"17917",-37.76888700,46-Rosamond Rd/Raleigh Rd (Maribyrnong),144.88672900,"1","82,57"
"17918",-37.76963700,48-Raleigh Rd/Wests Rd (Maribyrnong),144.88281300,"1","82"
"17919",-37.77310400,49-Highpoint Shopping Centre/Wests Rd (Maribyrnong),144.88218100,"1","82"
"17920",-37.77521200,50-Wests Rd/Williamson Rd (Maribyrnong),144.88214300,"1","82"
"17921",-37.77604000,51-Williamson Rd/Rosamond Rd (Maidstone),144.88557100,"1","82"
"17922",-37.77933200,52-Rosamond Rd/River St (Maribyrnong),144.88575000,"1","82"
"17923",-37.77959400,53-Maribyrnong College/River St (Maribyrnong),144.88778600,"1","82"
"17924",-37.78000200,54-Gordon St/River St (Maribyrnong),144.89093100,"1","82"
"17925",-37.78224100,55-Lyric St/Gordon St (Maribyrnong),144.89115100,"1","82"
"17926",-37.78489800,56-Edgewater Square/Gordon St (Maribyrnong),144.89059900,"1","82"
"17927",-37.78864400,57-Titch St/Gordon St (Footscray),144.88992400,"1","82"
"17928",-37.79047600,58-Ballarat Rd/Gordon St (Footscray),144.88955400,"1","82"
"17929",-37.79258400,59-Droop St/Ballarat Rd (Footscray),144.89357100,"1","82"
"17930",-37.79489000,60-Tiernan St/Droop St (Footscray),144.89551600,"1","82"
"17931",-37.79679300,61-Geelong Rd/Droop St (Footscray),144.89713100,"1","82"
"17932",-37.79984100,62-Nicholson St/Hopkins St (Footscray),144.89973600,"1","82"
"17933",-37.80008100,63-Footscray Market/Leeds St (Footscray),144.90105800,"1","82"
"17934",-37.80136700,64-Footscray Station/Leeds St (Footscray),144.90092000,"1","82"
"17935",-37.77043200,40-Epsom Rd/Maribyrnong Rd (Moonee Ponds),144.90512100,"1","82,57"
"17936",-37.77086200,39-Bowen St/Maribyrnong Rd (Moonee Ponds),144.90900300,"1","82,57"
"17937",-37.77123600,38-Hotham St/Maribyrnong Rd (Moonee Ponds),144.91233000,"1","82,57"
"17938",-37.77164400,37-Union Rd/Maribyrnong Rd (Moonee Ponds),144.91599700,"1","82,57"
"17939",-37.77189100,36-86 Maribyrnong Rd (Moonee Ponds),144.91829500,"1","82"
"17940",-37.77221200,35-Moore St/Maribyrnong Rd (Moonee Ponds),144.92113500,"1","82"
"17941",-37.77247400,34-Ascot Vale Rd/Maribyrnong Rd (Moonee Ponds),144.92370500,"1","82"
"17942",-37.77005100,33-Chaucer St/Ascot Vale Rd (Moonee Ponds),144.92428400,"1","82"
"17944",-37.76885600,49-Central Park Ave/Cordite Ave (Maribyrnong),144.87797700,"1","57"
"17945",-37.77357100,36-St Leonards Rd/Union Rd (Ascot Vale),144.91594300,"1","57"
"17946",-37.77588900,35-Bloomfield Rd/Union Rd (Ascot Vale),144.91556000,"1","57"
"17947",-37.77853300,34-Burrowes St/Union Rd (Ascot Vale),144.91522500,"1","57"
"17948",-37.78035500,33-Melbourne Showgrounds/Union Rd (Ascot Vale),144.91478700,"1","57"
"17949",-37.78258700,32-Sandown Rd/Epsom Rd (Ascot Vale),144.91671200,"1","57"
"17950",-37.78401800,31-Racing Victoria/161 Epsom Rd (Ascot Vale),144.91812500,"1","57"
"17951",-37.78604300,30-Flemington Racecourse/Epsom Rd (Ascot Vale),144.91998700,"1","57"
"17952",-37.78734900,29-Flemington Racecourse/Racecourse Rd (Flemington),144.92200600,"1","57"
"17953",-37.78762600,28-Smithfield Rd/Racecourse Rd (Flemington),144.92495000,"1","57"
"18485",-37.77029700,41-Maribyrnong Park/Maribyrnong Rd (Ascot Vale),144.90257100,"1","82,57"
"18486",-37.76982900,42-Clyde St/Raleigh Rd (Maribyrnong),144.89908700,"1","82,57"
"18487",-37.76950600,43-Van Ness Ave/Raleigh Rd (Maribyrnong),144.89612200,"1","82,57"
"18488",-37.76905700,44-Warrs Rd/Raleigh Rd (Maribyrnong),144.89218400,"1","82,57"
"18489",-37.76873900,45-Maribyrnong Community Centre/Raleigh Rd (Maribyrnong),144.88954800,"1","82,57"
"18490",-37.76900300,46-Rosamond Rd/Raleigh Rd (Maribyrnong),144.88715700,"1","82,57"
"18491",-37.76940300,48-Wests Rd/Raleigh Rd (Maribyrnong),144.88331900,"1","82,57"
"18492",-37.77328600,49-Highpoint Shopping Centre/Wests Rd (Maribyrnong),144.88226600,"1","82"
"18493",-37.77493000,50-Williamson Rd/Wests Rd (Maribyrnong),144.88199200,"1","82"
"18494",-37.77629300,51-Williamson Rd/Rosamond Rd (Maidstone),144.88564300,"1","82"
"18495",-37.77850200,52-River St/Rosamond Rd (Maribyrnong),144.88520600,"1","82"
"18496",-37.77954500,53-Maribyrnong College/River St (Maribyrnong),144.88809400,"1","82"
"18497",-37.77991700,54-Gordon St/River St (Maribyrnong),144.89124000,"1","82"
"18498",-37.78211800,55-Lyric St/Gordon St (Maribyrnong),144.89134800,"1","82"
"18499",-37.78444400,56-Edgewater Square/Gordon St (Maribyrnong),144.89087300,"1","82"
"18500",-37.78880000,57-Titch St/Gordon St (Footscray),144.89006800,"1","82"
"18501",-37.79055100,58-Ballarat Rd/Gordon St (Footscray),144.88972300,"1","82"
"18505",-37.79231300,59-Droop St/Ballarat Rd (Footscray),144.89351100,"1","82"
"18506",-37.79461900,60-Tiernan St/Droop St (Footscray),144.89548900,"1","82"
"18507",-37.79613800,61-Geelong Rd/Droop St (Footscray),144.89676400,"1","82"
"18508",-37.79927600,62-Nicholson St/Droop St (Footscray),144.89941200,"1","82"
"18509",-37.79985300,63-Leeds St/Hopkins St (Footscray),144.90091700,"1","82"
"18511",-37.77005300,33-Chaucer St/Ascot Vale Rd (Moonee Ponds),144.92444300,"1","82"
"20774",-37.73747700,52-Hoffmans Rd/Keilor Rd (Essendon),144.89254700,"1","59"
"20775",-37.75793200,37-Buckley St/Pascoe Vale Rd (Essendon),144.92646100,"1","59"
"21196",-37.73859900,51-Bradshaw St/Keilor Rd (Essendon),144.89582900,"1","59"
"22305",-37.73723100,52-Treadwell Rd/Keilor Rd (Niddrie),144.89235000,"1","59"
"22320",-37.76931500,48-Wests Rd/Cordite Ave (Maribyrnong),144.88242500,"1","57"
"19267",-37.77243100,30-Ormond Rd/Mt Alexander Rd (Moonee Ponds),144.92690800,"1","59"
"19268",-37.77059900,31-Montgomery St/Mt Alexander Rd (Moonee Ponds),144.92623300,"1","59"
"19269",-37.76693500,32-Moonee Ponds Junction/Pascoe Vale Rd (Moonee Ponds),144.92491600,"1","82,59"
"19270",-37.76431300,34-Moonee Valley Civic Centre/Pascoe Vale Rd (Moonee Ponds),144.92545500,"1","59"
"19271",-37.76252600,35-Queens Park/Pascoe Vale Rd (Moonee Ponds),144.92581100,"1","59"
"19272",-37.75974000,36-Salisbury St/Pascoe Vale Rd (Moonee Ponds),144.92628600,"1","59"
"19274",-37.75581200,38-Pascoe Vale Rd/Fletcher St (Essendon),144.92581700,"1","59"
"19275",-37.75547000,39-Hoddle St/Fletcher St (Essendon),144.92276200,"1","59"
"19276",-37.75517200,40-Nicholson St/Fletcher St (Essendon),144.92020500,"1","59"
"19277",-37.75492800,41-Fletcher St/Napier St (Essendon),144.91760100,"1","59"
"19376",-37.75266300,42-Grice Cres/Mt Alexander Rd (Essendon),144.91589400,"1","59"
"19467",-37.75022700,43-Brewster St/Mt Alexander Rd (Essendon),144.91422600,"1","59"
"19468",-37.74810100,44-Thorn St/Mt Alexander Rd (Essendon),144.91275400,"1","59"
"19469",-37.74648600,45-Glass St/Mt Alexander Rd (Essendon),144.91163000,"1","59"
"19470",-37.74395200,47-Mt Alexander Rd/Keilor Rd (Essendon),144.90894400,"1","59"
"19471",-37.74268800,48-Service St/Keilor Rd (Essendon North),144.90576800,"1","59"
"19472",-37.74150100,49-Essendon North PS/Keilor Rd (Essendon North),144.90288500,"1","59"
"19473",-37.74003200,50-Cooper St/Keilor Rd (Essendon North),144.89935100,"1","59"
"19475",-37.73525800,53-Keilor Rd/Matthews Ave (Niddrie),144.88936500,"1","59"
"19477",-37.73235500,54-Fullarton Rd/Matthews Ave (Niddrie),144.88983300,"1","59"
"19478",-37.72991200,55-Cameron St/Matthews Ave (Airport West),144.89025400,"1","59"
"19479",-37.72732400,56-Earl St/Matthews Ave (Airport West),144.89066800,"1","59"
"19480",-37.72306500,57-Hawker St/Matthews Ave (Airport West),144.89139000,"1","59"
"19481",-37.71837300,58-Marshall Rd/Matthews Ave (Airport West),144.89207900,"1","59"
"19482",-37.71384000,59-Airport West/Matthews Ave (Airport West),144.89056200,"1","59"
"19605",-37.77300800,30-Maribyrnong Rd/Mt Alexander Rd (Ascot Vale),144.92694900,"1","59"
"19606",-37.77068600,31-Montgomery St/Mt Alexander Rd (Moonee Ponds),144.92607100,"1","59"
"19608",-37.76665300,32-Moonee Ponds Junction/Pascoe Vale Rd (Moonee Ponds),144.92481000,"1","82,59"
"19609",-37.76400500,34-Moonee Valley Civic Centre/Pascoe Vale Rd (Moonee Ponds),144.92536100,"1","59"
"19623",-37.76270200,35-Queens Park/Pascoe Vale Rd (Moonee Ponds),144.92559000,"1","59"
"19624",-37.75986300,36-Murray St/Pascoe Vale Rd (Moonee Ponds),144.92607800,"1","59"
"19625",-37.75825500,37-Buckley St/Pascoe Vale Rd (Moonee Ponds),144.92635000,"1","59"
"19626",-37.75611300,38-Fletcher St/Pascoe Vale Rd (Essendon),144.92603600,"1","59"
"19627",-37.75569300,39-Hoddle St/Fletcher St (Essendon),144.92316400,"1","59"
"19628",-37.75545600,40-Nicholson St/Fletcher St (Essendon),144.92095800,"1","59"
"19657",-37.75487900,41-Fletcher St/Napier St (Essendon),144.91738700,"1","59"
"19658",-37.75249600,42-Shamrock St/Mt Alexander Rd (Essendon),144.91564900,"1","59"
"19659",-37.75066200,43-Thistle St/Mt Alexander Rd (Essendon),144.91436100,"1","59"
"19660",-37.74835500,44-Thorn St/Mt Alexander Rd (Essendon),144.91280300,"1","59"
"19661",-37.74638400,45-Leake St/Mt Alexander Rd (Essendon),144.91146300,"1","59"
"19662",-37.74477000,46-Lincoln Rd/Mt Alexander Rd (Essendon),144.91035100,"1","59"
"19663",-37.74416200,47-Mt Alexander Rd/Keilor Rd (Essendon),144.90909700,"1","59"
"19664",-37.74282100,48-Service St/Keilor Rd (Essendon),144.90569600,"1","59"
"19665",-37.74168300,49-Essendon North Primary School/Keilor Rd (Essendon North),144.90297000,"1","59"
"19666",-37.74020400,50-Cooper St/Keilor Rd (Essendon),144.89941500,"1","59"
"19667",-37.73877200,51-Bradshaw St/Keilor Rd (Essendon),144.89592600,"1","59"
"19669",-37.73655200,53A-Matthews Ave/Keilor Rd (Essendon),144.89016800,"1","59"
"19670",-37.73495900,53-Keilor Rd/Matthews Ave (Niddrie),144.88931600,"1","59"
"19671",-37.73237100,54-Fullarton Rd/Matthews Ave (Airport West),144.88969600,"1","59"
"19672",-37.72996300,55-Cameron St/Matthews Ave (Airport West),144.89012800,"1","59"
"19673",-37.72720500,56-Earl St/Matthews Ave (Airport West),144.89060300,"1","59"
"19674",-37.72311700,57-Hawker St/Matthews Ave (Airport West),144.89128600,"1","59"
"19675",-37.71841600,58-Marshall Rd/Matthews Ave (Airport West),144.89197500,"1","59"
"992",-37.77008000,41-Maribyrnong Park/Maribyrnong Rd (Ascot Vale),144.90205500,"1","82,57"
"4945",-37.76931800,43-Van Ness Ave/Raleigh Rd (Maribyrnong),144.89567300,"1","82,57"
"18730",-37.74435900,134-Merribell Ave/Nicholson St (Coburg),144.97772800,"1","1"
"18721",-37.75688000,129-Moreland Rd/Holmes St (Brunswick),144.97475400,"1","6,1"
"18722",-37.75620600,130-Barrow St/Moreland Rd (Coburg),144.97015300,"1","6"
"18723",-37.75581000,131-De Carle St/Moreland Rd (Coburg),144.96652000,"1","6"
"18724",-37.75556400,132-Sydney Rd/Moreland Rd (Coburg),144.96427900,"1","6"
"18725",-37.75526000,133-Moreland Station/Moreland Rd (Coburg),144.96238100,"1","6"
"18726",-37.75356600,130-The Avenue/Nicholson St (Coburg),144.97594500,"1","1"
"16716",-37.74874000,31-Reynard St/Sydney Rd (Coburg),144.96520400,"1","19"
"16719",-37.75564000,28-Moreland Rd/Sydney Rd (Brunswick),144.96401600,"1","19"
"17316",-37.75186100,30-The Avenue/Sydney Rd (Coburg),144.96484600,"1","19"
"17317",-37.75350500,29-Moore St/Sydney Rd (Coburg),144.96455100,"1","19"
"17318",-37.75531100,28-Moreland Rd/Sydney Rd (Coburg),144.96425200,"1","19"
"18727",-37.75134000,131-Rennie St/Nicholson St (Coburg),144.97650500,"1","1"
"18728",-37.74941800,132-Crozier St/Nicholson St (Coburg),144.97684100,"1","1"
"18729",-37.74637100,133-Harding St/Nicholson St (Coburg),144.97731000,"1","1"
"21961",-37.75350200,29-Moore St/Sydney Rd (Coburg),144.96441500,"1","19"
"19357",-37.75654100,129-Moreland Rd/Nicholson St (Coburg),144.97497900,"1","1"
"19358",-37.75657100,129-Moreland Rd/Holmes St (Brunswick),144.97462600,"1","6"
"19359",-37.75605800,130-Barrow St/Moreland Rd (Coburg),144.96997500,"1","6"
"19361",-37.75534000,132-Sydney Rd/Moreland Rd (Coburg),144.96385400,"1","6"
"19363",-37.75337200,130-The Avenue/Nicholson St (Coburg),144.97618900,"1","1"
"19364",-37.75121700,131-Rennie St/Nicholson St (Coburg),144.97667900,"1","1"
"19365",-37.74939300,132-Crozier St/Nicholson St (Coburg),144.97699000,"1","1"
"19366",-37.74605900,133-Harding St/Nicholson St (Coburg),144.97752300,"1","1"
"19367",-37.74437100,134-Merribell Ave/Nicholson St (Coburg),144.97788700,"1","1"
"19368",-37.74286100,135-Bell St/Nicholson St (Coburg),144.97813200,"1","1"
"6103",-37.75198300,42-Dundas St/Plenty Rd (Preston),145.00200200,"1","86"
"6104",-37.75455000,41-Collins St/High St (Thornbury),145.00136600,"1","86"
"6105",-37.75669800,40-Mansfield St/High St (Thornbury),145.00104700,"1","86"
"4161",-37.75541400,33-Hutton St/St Georges Rd (Thornbury),144.99393100,"1","11"
"4162",-37.75203300,34-Miller St/St Georges Rd (Preston),144.99488500,"1","11"
"4163",-37.75144100,36-Bracken Ave/Miller St (Thornbury),144.99131400,"1","11"
"4164",-37.75031200,37-Miller St/Gilbert Rd (Preston),144.98804200,"1","11"
"4165",-37.74808300,38-Oakover Rd/Gilbert Rd (Preston),144.98837500,"1","11"
"4166",-37.74563900,39-Latona Ave/Gilbert Rd (Preston),144.98880400,"1","11"
"4167",-37.74407500,40-Bell St/Gilbert Rd (Preston),144.98902800,"1","11"
"4168",-37.74131600,41-Bruce St/Gilbert Rd (Preston),144.98950000,"1","11"
"4169",-37.73909600,42-Cramer St/Gilbert Rd (Preston),144.98983200,"1","11"
"4170",-37.73671500,43-Murray Rd/Gilbert Rd (Preston),144.99021400,"1","11"
"4171",-37.73454000,44-Cooper St/Gilbert Rd (Preston),144.99059100,"1","11"
"4172",-37.73299400,45-Jacka St/Gilbert Rd (Preston),144.99084800,"1","11"
"4173",-37.73005600,46-McNamara St/Gilbert Rd (Preston),144.99135900,"1","11"
"4195",-37.73447000,51-Wood St/Plenty Rd (Preston),145.01354800,"1","86"
"4196",-37.73683900,50-Sylvester Gr/Plenty Rd (Preston),145.01241800,"1","86"
"4197",-37.73889400,49-Murray Rd/Plenty Rd (Preston),145.01136500,"1","86"
"4198",-37.74115300,48-Gower St/Plenty Rd (Preston),145.00959100,"1","86"
"4199",-37.74320700,47-David St/Plenty Rd (Preston),145.00795800,"1","86"
"4201",-37.74576000,45-Bell St/Plenty Rd (Preston),145.00599400,"1","86"
"4202",-37.74706100,44-Seymour St/Plenty Rd (Preston),145.00512000,"1","86"
"4203",-37.74918200,43-Raglan St/Plenty Rd (Preston),145.00370100,"1","86"
"4204",-37.75246200,42-Miller St/High St (Thornbury),145.00153600,"1","86"
"4205",-37.75435800,41-Blythe St/High St (Thornbury),145.00123500,"1","86"
"4206",-37.75672100,40-Mansfield St/High St (Thornbury),145.00083100,"1","86"
"4471",-37.75512100,33-Hutton St/St Georges Rd (Thornbury),144.99418800,"1","11"
"4472",-37.75226800,34-Miller St/St Georges Rd (Preston),144.99492400,"1","11"
"4473",-37.75126300,36-Devon St/Miller St (Preston),144.99094400,"1","11"
"4474",-37.75164400,35-St Georges Rd/Miller St (Preston),144.99479300,"1","11"
"4475",-37.75060200,37-Miller St/Gilbert Rd (Preston),144.98812500,"1","11"
"4476",-37.74823000,38-Oakover Rd/Gilbert Rd (Preston),144.98854100,"1","11"
"4477",-37.74562400,39-Latona Ave/Gilbert Rd (Preston),144.98896300,"1","11"
"4478",-37.74353800,40-Bell St/Gilbert Rd (Preston),144.98924700,"1","11"
"4479",-37.74096000,41-Bruce St/Gilbert Rd (Preston),144.98971400,"1","11"
"4480",-37.73891000,42-Cramer St/Gilbert Rd (Preston),144.99003000,"1","11"
"4481",-37.73646600,43-Murray Rd/Gilbert Rd (Preston),144.99041400,"1","11"
"4482",-37.73460600,44-Cooper St/Gilbert Rd (Preston),144.99073700,"1","11"
"4483",-37.73276400,45-Jacka St/Gilbert Rd (Preston),144.99105900,"1","11"
"4484",-37.72918600,47-West Preston/Gilbert Rd (Preston),144.99158700,"1","11"
"4503",-37.73099400,52-Tyler St/Plenty Rd (Preston),145.01476500,"1,2","86"
"4504",-37.73432100,51-Wood St/Plenty Rd (Preston),145.01382500,"1","86"
"4505",-37.73686800,50-Sylvester Gr/Plenty Rd (Preston),145.01256500,"1","86"
"4506",-37.73871000,49-Murray Rd/Plenty Rd (Preston),145.01167600,"1","86"
"4507",-37.74077400,48-Gower St/Plenty Rd (Preston),145.01008900,"1","86"
"4508",-37.74288200,47-David St/Plenty Rd (Preston),145.00844400,"1","86"
"4510",-37.74533700,45-Bell St/Plenty Rd (Preston),145.00652800,"1","86"
"4511",-37.74687700,44-Osborne Gr/Plenty Rd (Preston),145.00542000,"1","86"
"4512",-37.74888200,43-Raglan St/Plenty Rd (Preston),145.00409500,"1","86"
"18566",-37.79464800,51-Balwyn Rd/Doncaster Rd (Balwyn North),145.08463100,"1","48"
"18567",-37.79437200,50-Dight Ave/Doncaster Rd (Balwyn North),145.08093600,"1","48"
"18568",-37.79394100,49-Buchanan Ave/Doncaster Rd (Balwyn North),145.07772200,"1","48"
"18569",-37.79341200,48-Osburn Ave/Doncaster Rd (Balwyn North),145.07456700,"1","48"
"18570",-37.79272700,47-North Balwyn Shopping Centre/Doncaster Rd (Balwyn North),145.07072400,"1","48"
"18571",-37.79300600,46-Wattle Ave/Doncaster Rd (Balwyn North),145.06740100,"1","48"
"18574",-37.79470000,43-Kew High School/High St (Kew East),145.06134900,"1","48"
"18575",-37.79632400,42-Woodlands Ave/High St (Kew East),145.05767200,"1","48"
"18576",-37.79796600,41-Station St/High St (Kew East),145.05392700,"1","48"
"18577",-37.79872100,40-Harp Village/High St (Kew East),145.05219200,"1","48"
"18578",-37.79956400,39-Harp Rd/High St (Kew East),145.05027300,"1","48"
"18579",-37.80131600,38-Victoria Park/High St (Kew East),145.04617200,"1","48"
"18580",-37.80258200,37-Kew Cemetery/High St (Kew),145.04265200,"1","48"
"18581",-37.80353900,36-Gladstone St/High St (Kew),145.04001400,"1","48"
"18582",-37.80501200,35-Charles St/High St (Kew),145.03597700,"1","48"
"18583",-37.80564000,34-Union St/High St (Kew),145.03416600,"1","48"
"18584",-37.80667400,33-Kew Shopping Centre/High St (Kew),145.03131100,"1","48"
"18343",-37.81325300,26-Barkers Rd/Church St (Hawthorn),145.02325200,"1","48"
"18347",-37.80561700,34-Pakington St/High St (Kew),145.03383700,"1","48"
"18348",-37.80498700,35-Cobden St/High St (Kew),145.03554600,"1","48"
"18349",-37.80348900,36-Parkhill Rd/High St (Kew),145.03975500,"1","48"
"18350",-37.80247300,37-Kew Cemetery/High St (Kew),145.04256400,"1","48"
"18351",-37.80125900,38-Victoria Park/High St (Kew),145.04598100,"1","48"
"18352",-37.79941300,39-Harp Rd/High St (Kew),145.05043600,"1","48"
"18353",-37.79862800,40-Harp Village/High St (Kew East),145.05202400,"1","48"
"18354",-37.79743900,41-Clyde St/High St (Kew East),145.05475800,"1","48"
"18355",-37.79639700,42-Irymple Ave/High St (Kew East),145.05715900,"1","48"
"18356",-37.79465000,43-Kew High School/High St (Kew East),145.06108900,"1","48"
"18357",-37.79353000,44-Burke Rd/High St (Kew),145.06366200,"1","48"
"18358",-37.79316800,45-Burke Rd/Doncaster Rd (Balwyn North),145.06521600,"1","48"
"18359",-37.79283500,46-Wattle Ave/Doncaster Rd (Balwyn North),145.06745000,"1","48"
"18360",-37.79271200,47-North Balwyn Shopping Centre/Doncaster Rd (Balwyn North),145.07144000,"1","48"
"18361",-37.79321700,48-Sunburst Ave/Doncaster Rd (Balwyn North),145.07426600,"1","48"
"18362",-37.79375600,49-Cityview Rd/Doncaster Rd (Balwyn North),145.07746600,"1","48"
"18363",-37.79425900,50-Hill Rd/Doncaster Rd (Balwyn North),145.08118900,"1","48"
"19742",-37.81296400,29-Barkers Rd/High St (Kew),145.02377100,"1","48,109"
"19744",-37.81008100,31-Stevenson St/High St (Kew),145.02650600,"1","48,109"
"19745",-37.80743100,32-Kew Junction/High St (Kew),145.02914400,"1","48,109"
"19746",-37.80698900,34-High St/Cotham Rd (Kew),145.03130200,"1","109"
"19747",-37.80747500,35-Charles St/Cotham Rd (Kew),145.03554900,"1","109"
"19748",-37.80779900,36-Glenferrie Rd/Cotham Rd (Kew),145.03825500,"1","109"
"19749",-37.80831600,37-Belmont Ave/Cotham Rd (Kew),145.04277300,"1","109"
"19750",-37.80870600,38-Marshall Ave/Cotham Rd (Kew),145.04617100,"1","109"
"19751",-37.80911600,39-Thomas St/Cotham Rd (Kew),145.04974900,"1","109"
"19752",-37.80952300,40-St George's Hospital/Cotham Rd (Kew),145.05305500,"1","109"
"19753",-37.81009800,41-Kew Traffic School/Cotham Rd (Kew),145.05787900,"1","109"
"19778",-37.81044400,42-Burke Rd/Whitehorse Rd (Balwyn),145.06085700,"1","109"
"20584",-37.81481200,77-Barkers Rd/Glenferrie Rd (Hawthorn),145.03671700,"1","16"
"20590",-37.81211600,78-Fitzwilliam St/Glenferrie Rd (Hawthorn),145.03720900,"1","16"
"20591",-37.81202100,78-Fitzwilliam St/Glenferrie Rd (Hawthorn),145.03746200,"1","16"
"20592",-37.81008700,79-Wellington St/Glenferrie Rd (Hawthorn),145.03763800,"1","16"
"20593",-37.80990100,79-Wellington St/Glenferrie Rd (Hawthorn),145.03782400,"1","16"
"20594",-37.80792300,80-Cotham Rd/Glenferrie Rd (Kew),145.03811500,"1","16"
"20595",-37.80789600,80-Cotham Rd/Glenferrie Rd (Kew),145.03812700,"1","16"
"20895",-37.79346800,44-Burke Rd/Doncaster Rd (Balwyn North),145.06426500,"1","48"
"19391",-37.81302600,29-High St/Barkers Rd (Kew),145.02317900,"1","109"
"19393",-37.81022800,31-Stevenson St/High St (Kew),145.02616100,"1","48,109"
"19394",-37.80759200,32-Kew Junction/High St (Kew),145.02858300,"1","48,109"
"19395",-37.80681400,33-Kew Shopping Centre/High St (Kew),145.03051200,"1","48,109"
"19396",-37.80688700,34-QPO/Cotham Rd (Kew),145.03165700,"1","109"
"19397",-37.80730800,35-Charles St/Cotham Rd (Kew),145.03530300,"1","109"
"19398",-37.80762200,36-Glenferrie Rd/Cotham Rd (Kew),145.03790700,"1","109"
"19399",-37.80811900,37-Belmont Ave/Cotham Rd (Kew),145.04231300,"1","109"
"19400",-37.80852900,38-Marshall Ave/Cotham Rd (Kew),145.04583500,"1","109"
"19401",-37.80893700,39-Florence Ave/Cotham Rd (Kew),145.04927700,"1","109"
"19402",-37.80937600,40-St George's Hospital/Cotham Rd (Kew),145.05291100,"1","109"
"19403",-37.80993200,41-Kew Traffic School/Cotham Rd (Kew),145.05766800,"1","109"
"19404",-37.81027600,42-Burke Rd/Cotham Rd (Kew),145.06049800,"1","109"
"19405",-37.81078700,43-Deepdene Shopping Centre/Whitehorse Rd (Balwyn),145.06472200,"1","109"
"19406",-37.81123700,44-Deepdene Park/Whitehorse Rd (Balwyn),145.06852700,"1","109"
"19407",-37.81159100,45-Hardwicke St/Whitehorse Rd (Balwyn),145.07138000,"1","109"
"19409",-37.81276900,47-Balwyn Rd/Whitehorse Rd (Balwyn),145.08118700,"1,2","109"
"19410",-37.81306100,48-Balwyn Shopping Centre/Whitehorse Rd (Balwyn),145.08362200,"1,2","109"
"4174",-37.67898400,71-RMIT/Plenty Rd (Bundoora),145.06950200,"1,2","86"
"4175",-37.68135600,70-Clements Dr/Plenty Rd (Bundoora),145.06902000,"1,2","86"
"4176",-37.68802200,69-Taunton Dr/Plenty Rd (Bundoora),145.06665900,"1,2","86"
"4177",-37.69168600,68-Greenhills Rd/Plenty Rd (Bundoora),145.06313900,"1,2","86"
"4178",-37.69567400,67-Bundoora Square SC/Plenty Rd (Bundoora),145.05957600,"1,2","86"
"4179",-37.69796000,66-Settlement Rd/Plenty Rd (Bundoora),145.05884700,"1,2","86"
"4180",-37.70012100,65-Grimshaw St/Plenty Rd (Bundoora),145.05817800,"1,2","86"
"4181",-37.70367100,64-Mount Cooper Dr/Plenty Rd (Bundoora),145.05596400,"1,2","86"
"4182",-37.70738500,63-Greenwood Dr/Plenty Rd (Bundoora),145.05219200,"1,2","86"
"4183",-37.71053100,62-Metropolitan Fire Brigade/Plenty Rd (Bundoora),145.04896800,"1,2","86"
"4185",-37.71248800,61-Bundoora Park/Plenty Rd (Bundoora),145.04635300,"1,2","86"
"4186",-37.71644700,60-La Trobe University/Plenty Rd (Bundoora),145.04325400,"1,2","86"
"4187",-37.71898200,59-Preston Cemetery/Plenty Rd (Kingsbury),145.03962500,"1,2","86"
"4188",-37.72000800,58-Browning St/Plenty Rd (Kingsbury),145.03684100,"1,2","86"
"4189",-37.72268900,57-Reservoir District Secondary College/Plenty Rd (Reservoir),145.03006500,"1,2","86"
"4190",-37.72398600,56-Loddon Ave/Plenty Rd (Reservoir),145.02785200,"1,2","86"
"4191",-37.72543600,55-Boldrewood Pde/Plenty Rd (Reservoir),145.02295700,"1,2","86"
"4192",-37.72733300,54-Wilkinson St/Plenty Rd (Reservoir),145.02001400,"1,2","86"
"4193",-37.72913300,53-Ethel Gr/Plenty Rd (Reservoir),145.01720800,"1,2","86"
"4485",-37.68231800,70-Janefield Dr/Plenty Rd (Bundoora),145.06892700,"1,2","86"
"4486",-37.68815700,69-Taunton Dr/Plenty Rd (Bundoora),145.06667800,"1,2","86"
"4487",-37.69192700,68-Greenhills Rd/Plenty Rd (Bundoora),145.06301900,"1,2","86"
"4488",-37.69590800,67-Bundoora Square SC/Plenty Rd (Bundoora),145.05958100,"1,2","86"
"4489",-37.69826600,66-Settlement Rd/Plenty Rd (Bundoora),145.05881600,"1,2","86"
"4490",-37.69981700,65-Grimshaw St/Plenty Rd (Bundoora),145.05834500,"1,2","86"
"4491",-37.70390400,64-Mount Cooper Dr/Plenty Rd (Bundoora),145.05585600,"1,2","86"
"4492",-37.70807000,63-Greenwood Dr/Plenty Rd (Bundoora),145.05163000,"1,2","86"
"4493",-37.71055100,62-Metropolitan Fire Brigade/Plenty Rd (Bundoora),145.04910300,"1,2","86"
"4494",-37.71315200,61-Bundoora Park/Plenty Rd (Bundoora),145.04562000,"1,2","86"
"4495",-37.71736700,60-La Trobe University/Plenty Rd (Bundoora),145.04276400,"1,2","86"
"4496",-37.71903900,59-Preston Cemetery/Plenty Rd (Kingsbury),145.03975900,"1,2","86"
"4497",-37.72006400,58-Browning St/Plenty Rd (Kingsbury),145.03696400,"1,2","86"
"4498",-37.72263900,57-Reservoir District Secondary College/Plenty Rd (Reservoir),145.03031600,"1,2","86"
"4499",-37.72452200,56-Loddon Ave/Plenty Rd (Reservoir),145.02703200,"1,2","86"
"4500",-37.72556800,55-Albert St/Plenty Rd (Reservoir),145.02280600,"1,2","86"
"4501",-37.72770600,54-Wilkinson St/Plenty Rd (Reservoir),145.01967500,"1,2","86"
"4502",-37.72912000,53-Ethel Gr/Plenty Rd (Reservoir),145.01751500,"1,2","86"
"18529",-37.78807400,26-Newmarket Plaza/Racecourse Rd (Kensington),144.92839000,"1","57"
"18530",-37.78835400,25-Wellington St/Racecourse Rd (Flemington),144.93046000,"1","57"
"18531",-37.78850700,24-Collett St/Racecourse Rd (Kensington),144.93352200,"1","57"
"18532",-37.78874900,23-Stubbs St/Racecourse Rd (Flemington),144.93548000,"1","57"
"18533",-37.78920900,22-Boundary Rd/Racecourse Rd (North Melbourne),144.94014500,"1","57"
"18536",-37.79372900,19-Abbotsford St Interchange/Abbotsford St (North Melbourne),144.94716300,"1","57"
"18537",-37.79524600,18-Erskine St/Abbotsford St (North Melbourne),144.94680300,"1","57"
"18538",-37.79671900,17-Canning St/Abbotsford St (North Melbourne),144.94653500,"1","57"
"18539",-37.79796800,16-Haines St/Abbotsford St (North Melbourne),144.94631900,"1","57"
"18540",-37.80067200,15-Arden St/Abbotsford St (North Melbourne),144.94583500,"1","57"
"18541",-37.80266300,14-Abbotsford St/Queensberry St (North Melbourne),144.94580200,"1","57"
"18543",-37.79141400,23-Royal Park/Royal Park (Parkville),144.94929400,"1","58"
"18544",-37.78787800,24-Elliott Ave/Royal Park (Parkville),144.94961900,"1","58"
"18545",-37.78438300,25-State Netball Hockey Centre/Royal Park (Parkville),144.94867000,"1","58"
"16731",-37.78485600,16-Visy Park/Royal Pde (Parkville),144.95927400,"1","19"
"16732",-37.78793100,15-Leonard St/Royal Pde (Parkville),144.95889400,"1","19"
"16733",-37.79001700,14-Macarthur Rd/Royal Pde (Parkville),144.95864400,"1","19"
"16734",-37.79267900,13-Gatehouse St/Royal Pde (Parkville),144.95831000,"1","19"
"16735",-37.79565600,12-Morrah St/Royal Pde (Parkville),144.95794400,"1","19"
"16736",-37.79827300,11-University of Melbourne/Royal Pde (Parkville),144.95765600,"1","19"
"17330",-37.78458900,16-Walker St/Royal Pde (Parkville),144.95950900,"1","19"
"17331",-37.78767400,15-Leonard St/Royal Pde (Parkville),144.95912900,"1","19"
"17332",-37.78971500,14-Cemetery Road West/Royal Pde (Parkville),144.95887900,"1","19"
"17333",-37.79242200,13-Gatehouse St/Royal Pde (Parkville),144.95854400,"1","19"
"17334",-37.79556100,12-Morrah St/Royal Pde (Parkville),144.95817300,"1","19"
"17335",-37.79810500,11-University of Melbourne/Royal Pde (Parkville),144.95785400,"1","19"
"17591",-37.81276900,7-Russell St/Bourke St (Melbourne City),144.96835400,"1","96,86"
"17593",-37.81348400,6-Swanston St/Bourke St (Melbourne City),144.96590400,"1","96,86"
"17594",-37.81421700,5-Elizabeth St/Bourke St (Melbourne City),144.96351000,"1","96,86"
"17596",-37.81525300,4-Queen St/Bourke St (Melbourne City),144.95983500,"1","96,86"
"17597",-37.81588200,3-William St/Bourke St (Melbourne City),144.95762500,"1","96,86"
"17848",-37.81706300,1-Spencer St/Bourke St (Melbourne City),144.95351400,"1","96,86"
"17849",-37.81684600,1-Spencer St/Bourke St (Melbourne City),144.95399700,"1","96,86"
"17850",-37.81771700,1-Flinders Street Railway Station/Elizabeth St (Melbourne City),144.96476500,"1","57,59,19"
"17851",-37.81542800,2-Collins St/Elizabeth St (Melbourne City),144.96366900,"1","57,59,19"
"17852",-37.81344700,3-Bourke Street Mall/Elizabeth St (Melbourne City),144.96275800,"1","57,59,19"
"17854",-37.81055800,5-Melbourne Central Station/Elizabeth St (Melbourne City),144.96142900,"1","57,59,19"
"17856",-37.80656100,7-Queen Victoria Market/Elizabeth St (Melbourne City),144.95957400,"1","57,59,19"
"17857",-37.80593500,8-Peel St/Victoria St (Melbourne City),144.95621800,"1","57"
"17858",-37.80568800,9-William St/Victoria St (Melbourne City),144.95390800,"1","57"
"17859",-37.80551700,10-Chetwynd St/Victoria St (Melbourne City),144.95239100,"1","57"
"17860",-37.80519600,11-Errol St/Victoria St (Melbourne City),144.94944600,"1","57"
"17861",-37.80495900,11-Victoria St/Errol St (North Melbourne),144.94933900,"1","57"
"17862",-37.80540300,10-Chetwynd St/Victoria St (Melbourne City),144.95203000,"1","57"
"17863",-37.80556400,9-Howard St/Victoria St (Melbourne City),144.95350200,"1","57"
"17864",-37.80581000,8-Peel St/Victoria St (Melbourne City),144.95574400,"1","57"
"17866",-37.80194700,9-Pelham St/Elizabeth St (Melbourne City),144.95746400,"1","59,19"
"17867",-37.79990100,10-Royal Melbourne Hospital/Royal Pde (Melbourne City),144.95744100,"1","19"
"17868",-37.79958000,10-Royal Melbourne Hospital/Royal Pde (Parkville),144.95766500,"1","19"
"17869",-37.80214800,9-Pelham St/Elizabeth St (Melbourne City),144.95766300,"1","59,19"
"17871",-37.80689000,7-Queen Victoria Market/Elizabeth St (Melbourne City),144.95984900,"1","57,59,19"
"17873",-37.81110500,5-Melbourne Central Station/Elizabeth St (Melbourne City),144.96177800,"1","57,59,19"
"17875",-37.81403900,3-Bourke Street Mall/Elizabeth St (Melbourne City),144.96312800,"1","57,59,19"
"17876",-37.81592900,2-Collins St/Elizabeth St (Melbourne City),144.96399600,"1","57,59,19"
"17877",-37.81789900,1-Flinders Street Railway Station/Elizabeth St (Melbourne City),144.96484000,"1","57,59,19"
"17885",-37.81570600,3-William St/Bourke St (Melbourne City),144.95791400,"1","96,86"
"17886",-37.81512200,4-Queen St/Bourke St (Melbourne City),144.96005400,"1","96,86"
"17887",-37.81403100,5-Elizabeth St/Bourke St (Melbourne City),144.96368500,"1","96,86"
"17888",-37.81326600,6-Swanston St/Bourke St (Melbourne City),144.96637600,"1","96,86"
"17889",-37.81246800,7-Russell St/Bourke St (Melbourne City),144.96916900,"1","96,86"
"17901",-37.81567400,6-Melbourne Town Hall/Collins St (Melbourne City),144.96595700,"1","11,12,48,109"
"17902",-37.81642300,5-Elizabeth St/Collins St (Melbourne City),144.96340400,"1","11,12,48,109"
"17903",-37.81760700,3-William St/Collins St (Melbourne City),144.95942900,"1","11,12,48,109"
"17905",-37.81884700,1-Spencer St/Collins St (Melbourne City),144.95505500,"1","11,12,48,109"
"17906",-37.81874100,1-Spencer St/Collins St (Melbourne City),144.95518300,"1","11,12,48,109"
"17908",-37.81737200,3-William St/Collins St (Melbourne City),144.95991300,"1","11,12,48,109"
"17910",-37.81620600,5-Elizabeth St/Collins St (Melbourne City),144.96386400,"1","11,12,48,109"
"17911",-37.81551800,6-Melbourne Town Hall/Collins St (Melbourne City),144.96628000,"1","11,12,48,109"
"17954",-37.78797100,26-Newmarket Plaza/Racecourse Rd (Flemington),144.92815400,"1","57"
"17955",-37.78824100,25-Wellington St/Racecourse Rd (Flemington),144.93123500,"1","57"
"17956",-37.78844300,24-Victoria St/Racecourse Rd (Flemington),144.93349000,"1","57"
"17957",-37.78876800,23-Stubbs St/Racecourse Rd (Flemington),144.93658100,"1","57"
"17958",-37.78913100,22-Boundary Rd/Racecourse Rd (North Melbourne),144.93985200,"1","57"
"17959",-37.79039400,20-Melrose St/Flemington Rd (North Melbourne),144.94348500,"1","59,57"
"17961",-37.79410600,19-Abbotsford St Interchange/Abbotsford St (North Melbourne),144.94709600,"1","57"
"18011",-37.80810300,8-Exhibition St/La Trobe St (Melbourne City),144.96902700,"1","35,30"
"18031",-37.81029100,5-Elizabeth St/La Trobe St (Melbourne City),144.96159600,"1","35,30"
"18032",-37.81100500,4-Queen St/La Trobe St (Melbourne City),144.95912200,"1","35,30"
"18033",-37.81171100,3-William St/La Trobe St (Melbourne City),144.95671800,"1","35,30"
"18035",-37.81311200,1-Spencer St/La Trobe St (Melbourne City),144.95176000,"1","35,30"
"18037",-37.81378100,D10-New Quay Prom/Docklands Dr (Docklands),144.94050800,"1","70,86,35"
"18038",-37.81434500,D11-Waterfront City/Docklands Dr (Docklands),144.93875400,"1","70,86,35"
"18039",-37.81331200,D10-NewQuay Prom/Docklands Dr (Docklands),144.94150900,"1","70,86,35"
"18040",-37.81457800,D1-Stadium Precinct/La Trobe St (Docklands),144.94640400,"1","35,86,30"
"18041",-37.81321100,119-Spencer St/La Trobe St (Melbourne City),144.95120100,"1","35,86,30"
"18042",-37.81248000,2-King St/La Trobe St (Melbourne City),144.95373200,"1","35,30"
"18043",-37.81179100,3-William St/La Trobe St (Melbourne City),144.95613600,"1","35,30"
"18044",-37.81106100,4-Queen St/La Trobe St (Melbourne City),144.95871200,"1","35,30"
"18045",-37.81035500,5-Elizabeth St/La Trobe St (Melbourne City),144.96111700,"1","35,30"
"18052",-37.81470500,D2-Central Pier/Harbour Esp (Docklands),144.94490100,"1","35,70,75,86,30"
"18053",-37.81781900,D3-Stadium Precinct/Harbour Esp (Docklands),144.94624600,"1","70,75,35"
"18054",-37.82146600,D4-Docklands Park/Harbour Esp (Docklands),144.94761000,"1","70,75,35"
"18055",-37.82183500,D5-South Wharf/Wurundjeri Way (Docklands),144.95121300,"1","70,75,35"
"18056",-37.82147100,D6-Flinders Street West/Flinders St (Docklands),144.95360800,"1","70,75,35"
"18057",-37.79496000,18-Chapman St/Abbotsford St (North Melbourne),144.94694700,"1","57"
"18058",-37.79630700,17-Molesworth St/Abbotsford St (North Melbourne),144.94669400,"1","57"
"18059",-37.79828400,16-Haines St/Abbotsford St (North Melbourne),144.94634400,"1","57"
"18060",-37.80099700,15-Arden St/Abbotsford St (North Melbourne),144.94584900,"1","57"
"18061",-37.80239000,14-Queensberry St/Abbotsford St (North Melbourne),144.94562800,"1","57"
"18063",-37.79138000,23-Royal Park/Royal Park (Parkville),144.94939700,"1","58"
"18064",-37.78801600,24-Elliott Ave/Royal Park (Parkville),144.94975100,"1","58"
"18065",-37.78453900,25-State Netball Hockey Centre/Royal Park (Parkville),144.94884800,"1","58"
"18087",-37.81906300,3-Market St/Flinders St (Melbourne City),144.96179700,"1","70,75,35"
"18089",-37.81823800,4-Elizabeth St/Flinders St (Melbourne City),144.96462600,"1","70,75,35"
"18090",-37.81756000,5-Swanston St/Flinders St (Melbourne City),144.96713200,"1","70,75,35"
"18091",-37.81656400,6-Russell St/Flinders St (Melbourne City),144.97050000,"1","70,75,35"
"18174",-37.81665700,6-Russell St/Flinders St (Melbourne City),144.97016800,"1","70,75,35"
"18175",-37.81775600,5-Swanston St/Flinders St (Melbourne City),144.96649100,"1","70,75,35"
"18176",-37.81841200,4-Elizabeth St/Flinders St (Melbourne City),144.96428000,"1","70,75,35"
"18178",-37.81930600,3-Market St/Flinders St (Melbourne City),144.96127900,"1","70,75,35"
"18179",-37.82172600,D6-Victoria Police Centre/Flinders St (Southbank),144.95321500,"1","70,75,35"
"18180",-37.82200100,D5-South Wharf/Wurundjeri Way (Docklands),144.95091300,"1","70,75,35"
"18181",-37.82172500,D4-Docklands Park/Harbour Esp (Docklands),144.94750100,"1","70,75,35"
"18182",-37.81746300,D3-Stadium Precinct/Harbour Esp (Docklands),144.94596000,"1","70,75,35"
"18183",-37.81424900,D2-CentralPier/Harbour Esp (Docklands),144.94458400,"1","35,70,75,86,30"
"18185",-37.82328900,124A-Casino/MCEC/Clarendon St (Southbank),144.95605700,"1","12,96,109"
"18186",-37.82155400,124-Batman Park/Spencer St (Melbourne City),144.95526500,"1","12,96,109"
"18187",-37.81876700,122-Southern Cross Railway Station/Spencer St (Melbourne City),144.95409200,"1","96"
"18189",-37.81531300,120-Lonsdale St/Spencer St (Melbourne City),144.95238100,"1","86"
"18190",-37.81340500,119-La Trobe St/Spencer St (Melbourne City),144.95150200,"1","86"
"18192",-37.81496000,120-Lonsdale St/Spencer St (Melbourne City),144.95231100,"1","86"
"18194",-37.81831900,122-Southern Cross Railway Station/Spencer St (Melbourne City),144.95371800,"1","96"
"18196",-37.82177300,124-Batman Park/Spencer St (Melbourne City),144.95540600,"1","12,96,109"
"18197",-37.82359100,124A-Casino/MCEC/Clarendon St (Southbank),144.95631000,"1","12,96,109"
"18199",-37.81587400,5-Bourke St/William St (Melbourne City),144.95825000,"1","58"
"18201",-37.81199600,7-Flagstaff Railway Station/William St (Melbourne City),144.95651700,"1","58"
"18202",-37.80974300,8-Franklin St/William St (Melbourne City),144.95545400,"1","58"
"18203",-37.80539100,10-Victoria St/Peel St (West Melbourne),144.95602900,"1","58"
"18204",-37.80569800,10-Victoria St/Peel St (West Melbourne),144.95607700,"1","58"
"18205",-37.80744200,9-Queen Victoria Market/Peel St (North Melbourne),144.95577900,"1","58"
"18206",-37.80721600,9-Queen Victoria Market/39 Peel St (North Melbourne),144.95575100,"1","58"
"18207",-37.80942800,8-Franklin St/Peel St (Melbourne City),144.95547400,"1","58"
"18208",-37.81246100,7-Flagstaff Railway Station/William St (Melbourne City),144.95679900,"1","58"
"18210",-37.81544000,5-Bourke St/William St (Melbourne City),144.95816000,"1","58"
"18211",-37.81745700,4-Collins St/William St (Melbourne City),144.95909200,"1","58"
"18214",-37.81951300,1-Flinders St/Queens Bridge St (Melbourne City),144.96124000,"1","58"
"18215",-37.82211700,115-Casino/Southbank/Queens Bridge St (Southbank),144.96122500,"1","58"
"18227",-37.82381600,17-Arts Precinct/Sturt St (Southbank),144.96725600,"1","1"
"18229",-37.82409400,17-Arts Precinct/Sturt St (Southbank),144.96718000,"1","1"
"18450",-37.82171100,115-Casino East/Queens Bridge St (Southbank),144.96122500,"1","58"
"18465",-37.81942900,1-Flinders St/Queens Bridge St (Melbourne City),144.96110600,"1","58"
"18466",-37.81853900,2-Flinders Lane/Market St (Melbourne City),144.96069800,"1","58"
"18467",-37.81864000,3-William St/Flinders Lane (Melbourne City),144.95977600,"1","58"
"18469",-37.81781900,4-Collins St/William St (Melbourne City),144.95917300,"1","58"
"19691",-37.80779900,7-RMIT University/Swanston St (Melbourne City),144.96286800,"1","16,3/3a,5,6,64,67,72,1"
"19694",-37.80262900,3-Lincoln Square/Swanston St (Carlton),144.96355500,"1","16,3/3a,5,6,64,67,72,1"
"19696",-37.79876600,1-Melbourne University/Swanston St (Carlton),144.96424100,"1","16,3/3a,5,6,64,67,72,1"
"19699",-37.79758700,15-Murphy St/Flemington Rd (North Melbourne),144.95239400,"1","59,58"
"20482",-37.79748800,15-Murphy St/Flemington Rd (North Melbourne),144.95238500,"1","59,58"
"20490",-37.80138400,12-Flemington Rd/Peel St (North Melbourne),144.95673000,"1","58"
"20491",-37.80154800,12-Flemington Rd/Peel St (North Melbourne),144.95680500,"1","58"
"20492",-37.80362300,11-Queensberry St/Peel St (North Melbourne),144.95644100,"1","58"
"20493",-37.80330700,11-Queensberry St/Peel St (North Melbourne),144.95639300,"1","58"
"20981",-37.81456600,D1-Stadium Precinct/La Trobe St (Docklands),144.94674500,"1","35,86,30"
"21231",-37.82083400,1-Spencer St/Flinders St (Melbourne City),144.95585300,"1","70,75,35"
"21232",-37.82105100,1-Spencer St/Flinders St (Melbourne City),144.95538100,"1","70,75,35"
"21233",-37.82031000,2-Melbourne Aquarium/Flinders St (Melbourne City),144.95782100,"1","70,75,35"
"21234",-37.82010900,2-Melbourne Aquarium/Flinders St (Melbourne City),144.95821300,"1","70,75,35"
"22153",-37.81438300,7-Exhibition St/Collins St (Melbourne City),144.97051400,"1","11,12,48,109"
"19250",-37.80282600,13-Curzon St/Queensberry St (North Melbourne),144.94794400,"1","57"
"19251",-37.80298700,12-North Melbourne Town Hall/Queensberry St (North Melbourne),144.94940500,"1","57"
"19253",-37.79947800,14-Royal Melbourne Hospital/Flemington Rd (Parkville),144.95488600,"1","59,58"
"19254",-37.79641900,16-Harker St/Flemington Rd (Parkville),144.95105200,"1","59,58"
"19256",-37.79428200,19-Royal Childrens Hospital/Flemington Rd (North Melbourne),144.94836300,"1","59,58"
"19259",-37.78827600,22-Flemington Bridge Station/Flemington Rd (North Melbourne),144.94093200,"1","59"
"19260",-37.78592700,23-Flemington Community Centre/Mt Alexander Rd (Flemington),144.93905500,"1","59"
"19261",-37.78393600,24-Mooltan St/Mt Alexander Rd (Flemington),144.93699900,"1","59"
"19262",-37.78244000,25-Mount Alexander College/Mt Alexander Rd (Flemington),144.93394100,"1","59"
"19263",-37.78112000,26-Wellington St/Mt Alexander Rd (Flemington),144.93262600,"1","59"
"19264",-37.77943700,27-Essendon Tram Depot/Mt Alexander Rd (Ascot Vale),144.93122000,"1","59"
"19265",-37.77745700,28-Middle St/Mt Alexander Rd (Ascot Vale),144.92983300,"1","59"
"19266",-37.77554200,29-Warrick St/Mt Alexander Rd (Ascot Vale),144.92853500,"1","59"
"19341",-37.79413800,113-Lytton St/Lygon St (Carlton),144.96812700,"1","6,1"
"19343",-37.78928500,115-Melbourne Cemetery/Lygon St (Carlton North),144.96895200,"1","6,1"
"19346",-37.78153900,118-Pigdon St/Lygon St (Carlton North),144.97023200,"1","6,1"
"19347",-37.77988600,119-Park St/Lygon St (Carlton North),144.97049300,"1","6,1"
"19348",-37.77811500,120-Brunswick Rd/Lygon St (Brunswick),144.97078000,"1","6,1"
"19349",-37.77555300,121-Weston St/Lygon St (Brunswick East),144.97112200,"1","6,1"
"19492",-37.80569400,4-Queensberry St/Swanston St (Carlton),144.96310800,"1","16,3/3a,5,6,64,67,72,1"
"19494",-37.80813900,7-RMIT University/Swanston St (Melbourne City),144.96329000,"1","16,3/3a,5,6,64,67,72,1"
"19495",-37.81038200,8-Melbourne Central Station/Swanston St (Melbourne City),144.96427400,"1","16,3/3a,5,6,64,67,72,1"
"19497",-37.81319900,10-Bourke Street Mall/Swanston St (Melbourne City),144.96558200,"1","16,3/3a,5,6,64,67,72,1"
"19498",-37.81637800,11-City Square/Swanston St (Melbourne City),144.96701700,"1","16,3/3a,5,6,64,67,72,1"
"19499",-37.81847600,13-Federation Square/Swanston St (Melbourne City),144.96798200,"1","16,3/3a,5,6,64,67,72,1"
"19500",-37.82184600,14-Arts Precinct/St Kilda Rd (Southbank),144.96951400,"1","16,3/3a,5,6,64,67,72,1"
"19502",-37.82416900,17-Grant St-Police Memorial/St Kilda Rd (Southbank),144.97047300,"1","3/3a,5,6,64,67,72,16"
"19589",-37.80294200,13-Curzon St/Queensberry St (North Melbourne),144.94836200,"1","57"
"19590",-37.80322400,12-North Melbourne Town Hall/Errol St (North Melbourne),144.94953500,"1","57"
"19591",-37.79982600,14-Royal Melbourne Hospital/Flemington Rd (North Melbourne),144.95520500,"1","59,58"
"19592",-37.79675800,16-Harker St/Flemington Rd (North Melbourne),144.95136000,"1","59,58"
"19594",-37.79414100,19-Royal Childrens Hospital/Flemington Rd (North Melbourne),144.94806000,"1","59,58"
"19595",-37.79047400,20-Melrose St/Flemington Rd (North Melbourne),144.94346000,"1","59,57"
"19597",-37.78805400,22-Flemington Bridge Station/Flemington Rd (North Melbourne),144.94060900,"1","59"
"19598",-37.78584300,23-Flemington Community Centre/Mt Alexander Rd (Flemington),144.93885300,"1","59"
"19599",-37.78421800,24-Mooltan St/Mt Alexander Rd (Flemington),144.93717300,"1","59"
"19600",-37.78256500,25-Mount Alexander College/Mt Alexander Rd (Travancore),144.93386900,"1","59"
"19601",-37.78143600,26-Wellington St/Mt Alexander Rd (Flemington),144.93266300,"1","59"
"19602",-37.77980800,27-Essendon Tram Depot/Mt Alexander Rd (Ascot Vale),144.93131200,"1","59"
"19603",-37.77769900,28-Middle St/Mt Alexander Rd (Ascot Vale),144.92977000,"1","59"
"19604",-37.77574800,29-Warrick St/Mt Alexander Rd (Ascot Vale),144.92847300,"1","59"
"19681",-37.82463400,17-Grant St-Police Memorial/St Kilda Rd (Southbank),144.97080100,"1","3/3a,5,6,64,67,72,16"
"19684",-37.82151700,14-Arts Precinct/St Kilda Rd (Southbank),144.96923900,"1","16,3/3a,5,6,64,67,72,1"
"19685",-37.81806500,13-Federation Square/Swanston St (Melbourne City),144.96767500,"1","16,3/3a,5,6,64,67,72,1"
"19686",-37.81573000,11-City Square/Swanston St (Melbourne City),144.96656900,"1","16,3/3a,5,6,64,67,72,1"
"19687",-37.81275900,10-Bourke Street Mall/Swanston St (Melbourne City),144.96518500,"1","16,3/3a,5,6,64,67,72,1"
"43472",-37.81968100,D14-Southern Cross Station/Collins St (Docklands),144.95221500,"1","48,11"
"43473",-37.82026600,D15-Batman's Hill/Collins St (Docklands),144.95013100,"1","48,11"
"43474",-37.82152700,D17-Merchant St/Collins St (Docklands),144.94541600,"1","48,11"
"43475",-37.82079700,D16-Harbour Esp/Collins St (Docklands),144.94803800,"1","48,11"
"43476",-37.82007400,D15-Batman's Hill/Collins St (Docklands),144.95047700,"1","48,11"
"43477",-37.81947100,D14-Southern Cross Station/Collins St (Docklands),144.95259600,"1","48,11"
"43480",-37.82086200,D16-Harbour Esp/Collins St (Docklands),144.94813800,"1","48,11"
"47493",-37.82080100,D18-Bourke St/Collins St (Docklands),144.94203900,"1","48,11"
"18781",-37.84175500,134-Orrong Rd/Toorak Rd (Toorak),145.01404800,"1","58"
"18899",-37.84527800,26-Alfred Hospital/Commercial Rd (South Yarra),144.98222500,"1","72"
"18918",-37.84563000,27-Punt Rd/Commercial Rd (South Yarra),144.98486300,"1","72"
"18923",-37.84589900,28-Braille Library/Commercial Rd (South Yarra),144.98741300,"1","72"
"18931",-37.84631400,29-Porter St/Commercial Rd (South Yarra),144.99058300,"1","72"
"18933",-37.84654100,30-Prahran Market/Commercial Rd (South Yarra),144.99227100,"1","72"
"18934",-37.84676000,31-Chapel St/Commercial Rd (South Yarra),144.99401500,"1","72"
"18935",-37.84729300,32-Surrey Rd/Malvern Rd (South Yarra),144.99780700,"1","72"
"18936",-37.84765300,33-Francis St/Malvern Rd (South Yarra),145.00043400,"1","72"
"18937",-37.84800400,34-Williams Rd/Malvern Rd (South Yarra),145.00305000,"1","72"
"18938",-37.84848000,35-Mathoura Rd/Malvern Rd (Toorak),145.00668500,"1","72"
"18939",-37.84892300,36-A'Beckett St/Malvern Rd (Toorak),145.00999200,"1","72"
"18940",-37.84919300,37-Orrong Rd/Malvern Rd (Toorak),145.01207600,"1","72"
"18941",-37.84961800,38-Clendon Rd/Malvern Rd (Toorak),145.01536000,"1","72"
"18973",-37.87005900,36-St Kilda Primary School/Brighton Rd (Balaclava),144.98841500,"1","67"
"18974",-37.87177100,37-Chapel St/Brighton Rd (Balaclava),144.98949400,"1","67"
"18975",-37.87280000,38-Brunning St/Brighton Rd (Balaclava),144.99012500,"1","67"
"18976",-37.87663600,39-Glen Eira Rd/Brighton Rd (Balaclava),144.99254500,"1","67"
"18977",-37.87888600,40-Scott St/Brighton Rd (Balaclava),144.99397300,"1","67"
"18978",-37.88079800,41-Coleridge St/Brighton Rd (Balaclava),144.99516100,"1","67"
"19027",-37.86082500,40-Wattletree Rd/Dandenong Rd (Armadale),145.01517300,"1","64,5"
"19028",-37.86027000,38-Orrong Rd/Dandenong Rd (Prahran),145.01111900,"1","64,5"
"19029",-37.85980400,37-Lansdowne Rd/Dandenong Rd (St Kilda East),145.00752800,"1","64,5"
"19030",-37.85939500,36-Closeburn Ave/Dandenong Rd (St Kilda East),145.00464100,"1","64,5"
"19031",-37.85906300,35-Williams Rd/Dandenong Rd (Prahran),145.00207000,"1","64,5"
"19032",-37.85841300,34-The Avenue/Dandenong Rd (Windsor),144.99723400,"1","64,5"
"19033",-37.85820600,33-Hornby St/Dandenong Rd (Windsor),144.99569400,"1","64,5"
"19034",-37.85749400,32-Chapel St/Dandenong Rd (Windsor),144.99199600,"1","64,5"
"19035",-37.85615400,31-Queens Way/Queens Way (Windsor),144.98740600,"1","64,5"
"19068",-37.84979300,38-Clendon Rd/Malvern Rd (Toorak),145.01561700,"1","72"
"19069",-37.84938000,37-Orrong Rd/Malvern Rd (Toorak),145.01246900,"1","72"
"18603",-37.83266800,53-Howard St/Church St (Richmond),144.99679400,"1","78"
"18605",-37.83636400,51-Malcolm St/Chapel St (South Yarra),144.99634200,"1","78"
"18606",-37.83964800,50-Toorak Rd/Chapel St (South Yarra),144.99550300,"1","78"
"18607",-37.84157200,49-Palermo St/Chapel St (South Yarra),144.99528000,"1","78"
"18608",-37.84383300,48-Cliff St/Chapel St (South Yarra),144.99465100,"1","78"
"18609",-37.84697600,47-Commercial Rd/Chapel St (Prahran),144.99403200,"1","78"
"18610",-37.84910600,46-Chatham St/Chapel St (Prahran),144.99367800,"1","78"
"18611",-37.85195600,45-High St/Chapel St (Prahran),144.99328300,"1","78"
"18612",-37.85410200,44-Duke St/Chapel St (Windsor),144.99282700,"1","78"
"18613",-37.85624000,43-Windsor Railway Station/Chapel St (Windsor),144.99245100,"1","78"
"18614",-37.85792100,42-Dandenong Rd/Chapel St (St Kilda East),144.99215500,"1","78"
"18615",-37.85952900,41-St Michaels Grammar School/Chapel St (St Kilda),144.99187300,"1","78"
"18616",-37.86157700,40-Alma Rd/Chapel St (St Kilda East),144.99151000,"1","78"
"18617",-37.86339200,39-Argyle St/Chapel St (St Kilda East),144.99118800,"1","78"
"18618",-37.86544000,38-Inkerman St/Chapel St (St Kilda East),144.99079100,"1","78"
"18619",-37.86825000,37-Chapel St/Carlisle St (Balaclava),144.99013500,"1","3/3a,16"
"18620",-37.86809000,36-St Kilda Town Hall/Carlisle St (St Kilda),144.98868500,"1","3/3a,16"
"18621",-37.86847700,37-Carlisle St/Chapel St (St Kilda),144.99023100,"1","78"
"18622",-37.87109100,36-Brighton Rd/Chapel St (St Kilda),144.98977400,"1","78"
"18623",-37.86782800,35-St Kilda Rd/Carlisle St (St Kilda),144.98656600,"1","3/3a,67,16"
"18624",-37.86747800,34-Greeves St/Carlisle St (St Kilda),144.98400600,"1","3/3a,16"
"18625",-37.86706700,33-Barkly St/Carlisle St (St Kilda),144.98108500,"1","3/3a,16"
"18632",-37.86880600,38-Balaclava Station/Carlisle St (Balaclava),144.99423500,"1","3/3a,16"
"18633",-37.86907000,39-Orange Gr/Carlisle St (Balaclava),144.99651300,"1","3/3a,16"
"18634",-37.86943300,40-Hotham St/Carlisle St (Balaclava),144.99928900,"1","3/3a,16"
"18635",-37.86970600,41-Empress Rd/Balaclava Rd (St Kilda East),145.00157700,"1","3/3a,16"
"18636",-37.87016600,42-Sidwell Ave/Balaclava Rd (Caulfield North),145.00531700,"1","3/3a,16"
"18637",-37.87055300,43-Orrong Rd/Balaclava Rd (Caulfield North),145.00846600,"1","3/3a,16"
"18638",-37.87106900,44-Ontario St/Balaclava Rd (Caulfield North),145.01236300,"1","3/3a,16"
"18639",-37.87134400,45-Lumeah Rd/Balaclava Rd (Caulfield North),145.01473200,"1","3/3a,16"
"18699",-37.83819000,124-Walsh St/Toorak Rd (South Yarra),144.98456500,"1","58"
"18700",-37.83841700,125-Punt Rd/Toorak Rd (South Yarra),144.98674100,"1","58"
"18702",-37.83878800,126-Myrtle St/Toorak Rd (South Yarra),144.98950400,"1","58"
"18703",-37.83913100,127-South Yarra Railway Station/Toorak Rd (South Yarra),144.99216500,"1","58"
"18704",-37.83958100,128-Chapel St/Toorak Rd (South Yarra),144.99582300,"1","58"
"18705",-37.83992700,129-Tivoli Rd/Toorak Rd (South Yarra),144.99866600,"1","58"
"18706",-37.84036800,130-Hawksburn Rd/Toorak Rd (South Yarra),145.00233600,"1","58"
"18707",-37.84072500,131-Williams Rd/Toorak Rd (Toorak),145.00536000,"1","58"
"18708",-37.84109300,132-Toorak Village/Toorak Rd (Toorak),145.00845200,"1","58"
"18709",-37.84138700,133-Canterbury Rd/Toorak Rd (Toorak),145.01088800,"1","58"
"13401",-37.85056400,28-Punt Rd/High St (Prahran),144.98404700,"1","6"
"14033",-37.85105000,29-Perth St/High St (Prahran),144.98772700,"1","6"
"14614",-37.85131900,30-Prahran Station/High St (Prahran),144.98973100,"1","6"
"14728",-37.85175600,31-Chapel St/High St (Prahran),144.99320900,"1","6"
"15699",-37.85219900,32-Hornby St/High St (Prahran),144.99643600,"1","6"
"16610",-37.85243400,33-The Avenue/High St (Prahran),144.99808900,"1","6"
"16718",-37.85265100,34-Lewisham Rd/High St (Prahran),144.99968500,"1","6"
"16738",-37.85301100,35-Williams Rd/High St (Prahran),145.00232400,"1","6"
"16739",-37.85355600,36-Chatsworth Rd/High St (Prahran),145.00627600,"1","6"
"16740",-37.85386600,37-Airlie Ave/High St (Prahran),145.00865400,"1","6"
"16741",-37.85422000,38-Orrong Rd/High St (Prahran),145.01145200,"1","6"
"16742",-37.85468500,39-Auburn Gr/High St (Armadale),145.01497400,"1","6"
"16772",-37.85487200,39-Auburn Gr/High St (Armadale),145.01535600,"1","6"
"16773",-37.85438600,38-Orrong Rd/High St (Armadale),145.01170900,"1","6"
"16774",-37.85399300,37-Airlie Ave/High St (Prahran),145.00868500,"1","6"
"16775",-37.85376400,36-Chatsworth Rd/High St (Prahran),145.00687300,"1","6"
"16776",-37.85316900,35-Williams Rd/High St (Prahran),145.00261500,"1","6"
"16777",-37.85282900,34-Lewisham Rd/High St (Prahran),145.00011300,"1","6"
"16778",-37.85262300,33-The Avenue/High St (Prahran),144.99860700,"1","6"
"17602",-37.85235400,32-Hornby St/High St (Prahran),144.99653400,"1","6"
"17603",-37.85195100,31-Chapel St/High St (Prahran),144.99353300,"1","6"
"17604",-37.85139200,30-Prahran Station/High St (Windsor),144.98929800,"1","6"
"17605",-37.85120700,29-Perth St/High St (Windsor),144.98792700,"1","6"
"17606",-37.85075800,28-Punt Rd/High St (Windsor),144.98437100,"1","6"
"18364",-37.87012000,36-St Kilda Primary School/Brighton Rd (Elwood),144.98834500,"1","67"
"18365",-37.87288100,38-Wimbledon Ave/Brighton Rd (Elwood),144.99007800,"1","67"
"18367",-37.87596000,39-Glen Eira Rd/Brighton Rd (Elwood),144.99201800,"1","67"
"18368",-37.87894700,40-Scott St/Brighton Rd (Elwood),144.99389200,"1","67"
"18369",-37.88084200,41-Coleridge St/Brighton Rd (Elwood),144.99508000,"1","67"
"18441",-37.86080800,40-Wattletree Rd/Dandenong Rd (Armadale),145.01469600,"1","64,5"
"18443",-37.86030100,38-Orrong Rd/Dandenong Rd (Armadale),145.01083400,"1","64,5"
"18444",-37.85982700,37-Lansdowne Rd/Dandenong Rd (Prahran),145.00727800,"1","64,5"
"18445",-37.85942500,36-Alexandra St/Dandenong Rd (Prahran),145.00429900,"1","64,5"
"18446",-37.85907300,35-Williams Rd/Dandenong Rd (Prahran),145.00164900,"1","64,5"
"18447",-37.85850800,34-Westbury St/Dandenong Rd (St Kilda East),144.99753800,"1","64,5"
"18448",-37.85827900,33-Hornby St/Dandenong Rd (Windsor),144.99574800,"1","64,5"
"18449",-37.85742600,32-Chapel St/Dandenong Rd (Windsor),144.99169100,"1","64,5"
"19697",-37.86511300,34-Inkerman St/St Kilda Rd (St Kilda),144.98590100,"1","67,3/3a"
"19698",-37.86406900,34-Inkerman St/St Kilda Rd (St Kilda),144.98545200,"1","67,3/3a"
"19700",-37.86248300,33-Argyle St/St Kilda Rd (St Kilda),144.98489300,"1","67,3/3a"
"19701",-37.86208600,33-Argyle St/St Kilda Rd (St Kilda),144.98489200,"1","67,3/3a"
"19702",-37.85994500,32-Alma Rd/St Kilda Rd (St Kilda),144.98405300,"1","67,3/3a"
"19703",-37.86098000,32-Alma Rd/St Kilda Rd (St Kilda),144.98451300,"1","67,3/3a"
"19704",-37.85796800,31-Barkly St/St Kilda Rd (St Kilda),144.98335600,"1","67,3/3a"
"19705",-37.85826100,31-Barkly St/St Kilda Rd (St Kilda),144.98358700,"1","67,3/3a"
"20506",-37.85928500,132-St Kilda Station/Fitzroy St (St Kilda),144.97763700,"1","96"
"20507",-37.85904400,132-St Kilda Station/Fitzroy St (St Kilda),144.97725700,"1","96"
"20508",-37.86018000,133-Canterbury Rd/Fitzroy St (St Kilda),144.97677200,"1","3/3a,96,16"
"20509",-37.85993200,133-Canterbury Rd/Fitzroy St (St Kilda),144.97701700,"1","3/3a,96,16"
"20510",-37.86108300,134-Park St/Fitzroy St (St Kilda),144.97525800,"1","3/3a,96,16"
"20511",-37.86095700,134-Park St/Fitzroy St (St Kilda),144.97527300,"1","3/3a,96,16"
"20512",-37.86205100,135-Acland St/Fitzroy St (St Kilda),144.97341300,"1","3/3a,96,16"
"20513",-37.86241400,135-Jacka Bvd/Fitzroy St (St Kilda),144.97300500,"1","3/3a,96,16"
"20514",-37.86519700,136-Alfred Square/The Esplanade (St Kilda),144.97348600,"1","3/3a,96,16"
"20515",-37.86529300,136-Alfred Square/The Esplanade (St Kilda),144.97377900,"1","3/3a,96,16"
"20518",-37.86698500,138-Luna Park/The Esplanade (St Kilda),144.97683500,"1","3/3a,96,16"
"20519",-37.86700100,138-Luna Park/The Esplanade (St Kilda),144.97721000,"1","3/3a,96,16"
"20520",-37.86887700,139-Belford St/Acland St (St Kilda),144.97994400,"1","96"
"20522",-37.86880700,139-Belford St/Acland St (St Kilda),144.98007100,"1","96"
"4135",-37.86098800,143-Fitzroy St/Park St (St Kilda),144.97445300,"1","12"
"4136",-37.85979400,142-Mary St/Park St (St Kilda West),144.97319000,"1","12"
"4137",-37.85749100,141-Deakin St/Park St (St Kilda West),144.97078700,"1","12"
"20597",-37.86844500,37-Chapel St/Carlisle St (St Kilda),144.99049400,"1","3/3a,16"
"20598",-37.86886200,38-Balaclava Station/Carlisle St (Balaclava),144.99381300,"1","3/3a,16"
"20599",-37.86924500,39-Carlisle Ave/Carlisle St (St Kilda),144.99673600,"1","3/3a,16"
"20647",-37.86961000,40-Hotham St/Balaclava Rd (St Kilda East),144.99962500,"1","3/3a,16"
"20648",-37.86998400,41-Vadlure Ave/Balaclava Rd (St Kilda East),145.00258200,"1","3/3a,16"
"21042",-37.87034200,42-Allan Rd/Balaclava Rd (Caulfield North),145.00558500,"1","3/3a,16"
"21057",-37.87074800,43-Orrong Rd/Balaclava Rd (Caulfield North),145.00879100,"1","3/3a,16"
"21058",-37.87117800,44-Otira Rd/Balaclava Rd (Caulfield North),145.01238300,"1","3/3a,16"
"21059",-37.87155700,45-Kent Gr/Balaclava Rd (Caulfield North),145.01510100,"1","3/3a,16"
"21963",-37.86732500,35-Carlisle St/St Kilda Rd (St Kilda),144.98663600,"1","67,3/3a"
"22109",-37.85696600,131-St Kilda Rd/Fitzroy St (St Kilda),144.98220100,"1","3/3a,16"
"22110",-37.85679700,131-St Kilda Rd/Fitzroy St (St Kilda),144.98233100,"1","3/3a,16"
"22111",-37.85793000,132-Princes St/Fitzroy St (St Kilda),144.98057300,"1","3/3a,16"
"22112",-37.85804900,132-Princes St/Fitzroy St (St Kilda),144.98019400,"1","3/3a,16"
"19098",-37.83282700,53-Howard St/Church St (Richmond),144.99660800,"1","78"
"19100",-37.83694400,51-Malcolm St/Chapel St (South Yarra),144.99604200,"1","78"
"19101",-37.83934600,50-Toorak Rd/Chapel St (South Yarra),144.99578400,"1","78"
"19102",-37.84202700,49-Arthur St/Chapel St (South Yarra),144.99497300,"1","78"
"19103",-37.84363900,48-Wilson St/Chapel St (South Yarra),144.99489500,"1","78"
"19104",-37.84670100,47-Malvern Rd/Chapel St (South Yarra),144.99425500,"1","78"
"19105",-37.84894800,46-Chatham St/Chapel St (Prahran),144.99392100,"1","78"
"19106",-37.85172500,45-High St/Chapel St (Prahran),144.99349400,"1","78"
"19107",-37.85398900,44-Duke St/Chapel St (Prahran),144.99304600,"1","78"
"19108",-37.85612700,43-Windsor Railway Station/Chapel St (Prahran),144.99264700,"1","78"
"19109",-37.85742000,42-Dandenong Rd/Chapel St (Prahran),144.99241900,"1","78"
"19110",-37.85937900,41-St Michaels Grammar School/Chapel St (St Kilda East),144.99208100,"1","78"
"19111",-37.86137400,40-Alma Rd/Chapel St (St Kilda East),144.99173200,"1","78"
"19112",-37.86332400,39-Argyle St/Chapel St (St Kilda East),144.99139500,"1","78"
"19113",-37.86520100,38-Inkerman St/Chapel St (St Kilda East),144.99103700,"1","78"
"19115",-37.86822600,36-St Kilda Town Hall/Carlisle St (St Kilda),144.98876000,"1","3/3a,16"
"19116",-37.86821000,37-Carlisle St/Chapel St (St Kilda),144.99047700,"1","78"
"19118",-37.86808100,35-Brighton Rd/Carlisle St (St Kilda),144.98767300,"1","3/3a,16"
"19119",-37.86759400,34-Mitchell St/Carlisle St (St Kilda),144.98396900,"1","3/3a,16"
"19123",-37.84894800,36-Canterbury Rd/Malvern Rd (Toorak),145.00932100,"1","72"
"19124",-37.84859400,35-Lorne Rd/Malvern Rd (Toorak),145.00648900,"1","72"
"19125",-37.84819000,34-Williams Rd/Malvern Rd (Toorak),145.00340900,"1","72"
"19126",-37.84788100,33-Hobson St/Malvern Rd (South Yarra),145.00115500,"1","72"
"19127",-37.84745000,32-Bendigo St/Malvern Rd (Prahran),144.99804200,"1","72"
"19128",-37.84693400,31-Chapel St/Malvern Rd (Prahran),144.99421500,"1","72"
"19129",-37.84670600,30-Prahran Market/Commercial Rd (Prahran),144.99242500,"1","72"
"19130",-37.84651400,29-Porter St/Commercial Rd (Prahran),144.99071400,"1","72"
"19131",-37.84607300,28-Braille Library/Commercial Rd (Prahran),144.98755600,"1","72"
"19132",-37.84577000,27-Punt Rd/Commercial Rd (Prahran),144.98515500,"1","72"
"19133",-37.84536100,26-Alfred Hospital/Commercial Rd (Prahran),144.98231300,"1","72"
"19135",-37.86725300,33-Barkly St/Carlisle St (St Kilda),144.98138700,"1","3/3a,16"
"19136",-37.86704200,32-Havelock St/Carlisle St (St Kilda),144.97858500,"1","3/3a,16"
"19322",-37.83802800,124-Walsh St/Toorak Rd (South Yarra),144.98453600,"1","58"
"19323",-37.83821000,125-Punt Rd/Toorak Rd (South Yarra),144.98626900,"1","58"
"19324",-37.83862400,126-Myrtle St/Toorak Rd (South Yarra),144.98934900,"1","58"
"19325",-37.83898600,127-South Yarra Railway Station/Toorak Rd (South Yarra),144.99208900,"1","58"
"19326",-37.83937600,128-Chapel St/Toorak Rd (South Yarra),144.99543100,"1","58"
"19327",-37.83977100,129-Tivoli Rd/Toorak Rd (South Yarra),144.99848800,"1","58"
"19328",-37.84020900,130-Hawksburn Rd/Toorak Rd (South Yarra),145.00198800,"1","58"
"19329",-37.84051400,131-Williams Rd/Toorak Rd (South Yarra),145.00458200,"1","58"
"19330",-37.84096500,132-Toorak Village/Toorak Rd (Toorak),145.00834200,"1","58"
"19331",-37.84122800,133-Grange Rd/Toorak Rd (Toorak),145.01058500,"1","58"
"19332",-37.84161500,134-Orrong Rd/Toorak Rd (Toorak),145.01373400,"1","58"
"19528",-37.83576100,22-Toorak Rd/St Kilda Rd (Melbourne City),144.97534800,"1","3/3a,5,6,64,67,72,16"
"19539",-37.83885500,23-Arthur St/St Kilda Rd (Melbourne City),144.97657000,"1","3/3a,5,6,64,67,72,16"
"19560",-37.84115900,24-Leopold St/St Kilda Rd (South Melbourne),144.97740500,"1","3/3a,5,6,64,67,72,16"
"19561",-37.84452300,25-Commercial Rd/St Kilda Rd (South Melbourne),144.97863100,"1","3/3a,5,6,64,67,72,16"
"19562",-37.84755200,26-Moubray St/St Kilda Rd (South Melbourne),144.97971900,"1","3/3a,5,6,64,67,16"
"19563",-37.84986400,27-High St/St Kilda Rd (South Melbourne),144.98055400,"1","3/3a,5,6,64,67,16"
"19565",-37.85300200,29-Union St/St Kilda Rd (St Kilda),144.98170700,"1","3/3a,5,64,67,16"
"19566",-37.85529600,30-St Kilda Junction/St Kilda Rd (St Kilda),144.98253100,"1","3/3a,5,64,67,16"
"19567",-37.85624600,31-Queens Way/Queens Way (St Kilda),144.98749500,"1","64,5"
"19568",-37.85503100,30-St Kilda Junction/St Kilda Rd (St Kilda),144.98234500,"1","3/3a,5,64,67,16"
"19569",-37.85248300,29-Union St/St Kilda Rd (St Kilda),144.98143700,"1","3/3a,5,64,67,16"
"19571",-37.84991800,27-Lorne St/St Kilda Rd (Melbourne City),144.98054100,"1","3/3a,5,6,64,67,16"
"19572",-37.84789500,26-Beatrice St/St Kilda Rd (Melbourne City),144.97975500,"1","3/3a,5,6,64,67,16"
"19573",-37.84401300,25-Commercial Rd/St Kilda Rd (Melbourne City),144.97833900,"1","3/3a,5,6,64,67,72,16"
"19574",-37.84148300,24-Leopold St/St Kilda Rd (Melbourne City),144.97741900,"1","3/3a,5,6,64,67,72,16"
"19575",-37.83929800,23-Arthur St/St Kilda Rd (Melbourne City),144.97661500,"1","3/3a,5,6,64,67,72,16"
"19676",-37.83547600,22-Toorak Rd/St Kilda Rd (Melbourne City),144.97503800,"1","3/3a,5,58,6,64,67,72,16"
"4445",-37.85947700,142-Mary St/Park St (St Kilda West),144.97307400,"1","12"
"4446",-37.85718000,141-Cowderoy St/Park St (St Kilda West),144.97050000,"1","12"
"49999",-37.83575200,22-Toorak Rd/St Kilda Rd (Melbourne City),144.97536000,"1","58"
"52112",-37.83762000,123-Fawkner Park/Toorak Rd (South Yarra),144.98070600,"1","58"
"52113",-37.83763400,123-Fawkner Park/Toorak Rd (South Yarra),144.98104700,"1","58"
"18789",-37.79711300,112-Lygon St/Elgin St (Carlton),144.96715900,"1","6,1"
"18790",-37.79412700,113-Lytton St/Lygon St (Carlton),144.96802500,"1","6,1"
"18791",-37.79268900,114-Princes St/Lygon St (Carlton North),144.96826900,"1","6,1"
"18792",-37.78958000,115-Melbourne Cemetery/Lygon St (Carlton North),144.96879700,"1","6,1"
"18793",-37.78737000,116-Fenwick St/Lygon St (Carlton North),144.96918600,"1","6,1"
"18794",-37.78403600,117-Richardson St/Lygon St (Carlton North),144.96973200,"1","6,1"
"18795",-37.78192400,118-Pigdon St/Lygon St (Carlton North),144.97007400,"1","6,1"
"18711",-37.77941700,119-Park St/Lygon St (Carlton North),144.97047100,"1","6,1"
"18712",-37.77845500,120-Brunswick Rd/Lygon St (Brunswick),144.97063400,"1","6,1"
"18713",-37.77566700,121-Weston St/Lygon St (Brunswick East),144.97097100,"1","6,1"
"18714",-37.77273700,122-Glenlyon Rd/Lygon St (Brunswick East),144.97141500,"1","6,1"
"18715",-37.76978100,123-Albert St/Lygon St (Brunswick East),144.97195000,"1","6,1"
"18716",-37.76820000,124-Victoria St/Lygon St (Brunswick East),144.97223100,"1","6,1"
"18717",-37.76666400,125-Blyth St/Lygon St (Brunswick East),144.97251200,"1","6,1"
"18718",-37.76442700,126-Stewart St/Lygon St (Brunswick East),144.97290200,"1","6,1"
"18719",-37.76236900,127-Albion St/Lygon St (Brunswick East),144.97326500,"1","6,1"
"18720",-37.75938700,128-Mitchell St/Holmes St (Brunswick East),144.97433400,"1","6,1"
"16721",-37.76095900,26-Albion St/Sydney Rd (Brunswick),144.96308700,"1","19"
"17320",-37.76073800,26-Albion St/Sydney Rd (Brunswick),144.96330900,"1","19"
"17878",-37.80575800,11-Melbourne Museum/Nicholson St (Fitzroy),144.97360100,"1","96,86"
"17880",-37.80967600,10-Albert St/Nicholson St (Fitzroy),144.97294900,"1","86,96,35"
"17882",-37.81154400,9-Spring St/Bourke St (Melbourne City),144.97257900,"1","96,86"
"17891",-37.81152300,9-Spring St/Bourke St (Melbourne City),144.97241000,"1","96,86"
"17892",-37.80942300,10-Albert St/Nicholson St (East Melbourne),144.97289900,"1","86,96,35"
"17894",-37.80567600,11-Melbourne Museum/Nicholson St (Fitzroy),144.97354600,"1","96,86"
"17895",-37.80828000,12-St Vincents Plaza/Victoria Pde (East Melbourne),144.97613300,"1","11,12,30,109"
"17896",-37.80939000,11-Albert St/Gisborne St (East Melbourne),144.97572800,"1","11,12,109"
"17897",-37.81237900,10-Parliament Railway Station/Macarthur St (East Melbourne),144.97448800,"1","11,12,109"
"17898",-37.81355700,8-Spring St/Collins St (Melbourne City),144.97328500,"1","11,12,48,109"
"17914",-37.81341600,8-Spring St/Collins St (Melbourne City),144.97348200,"1","11,12,48,109"
"17915",-37.81217000,10-Parliament Railway Station/Macarthur St (East Melbourne),144.97436800,"1","11,12,109"
"18006",-37.80969500,11-Albert St/Gisborne St (East Melbourne),144.97560600,"1","11,12,109"
"18009",-37.80801900,10-Nicholson St/Victoria Pde (East Melbourne),144.97356200,"1","30"
"18010",-37.80761400,9-La Trobe St/Victoria St (Melbourne City),144.97097200,"1","35,30"
"18030",-37.80955000,6-Swanston St/La Trobe St (Melbourne City),144.96408100,"1","35,30"
"18046",-37.80964700,6-Swanston St/La Trobe St (Melbourne City),144.96346500,"1","35,30"
"18047",-37.80890900,7-Russell St/La Trobe St (Melbourne City),144.96609800,"1","35,30"
"18048",-37.80818500,8-Exhibition St/La Trobe St (Melbourne City),144.96853700,"1","35,30"
"18049",-37.80765600,9-Victoria St/La Trobe St (Melbourne City),144.97026600,"1","35,30"
"18050",-37.80783600,10-Nicholson St/Victoria Pde (Carlton),144.97284000,"1","35,30"
"18051",-37.80823100,12-St Vincents Plaza/Victoria Pde (Fitzroy),144.97645200,"1","11,12,30,109"
"18092",-37.81531900,8-Spring St/Flinders St (Melbourne City),144.97461200,"1","75,35"
"18093",-37.81545300,9-Lansdowne St/Wellington Pde (East Melbourne),144.97716400,"1","75,48"
"18094",-37.81575000,10-Jolimont Rd/Wellington Pde (East Melbourne),144.97979100,"1","75,48"
"18103",-37.81576900,10-Jolimont Rd/Wellington Pde (East Melbourne),144.97932500,"1","75,48"
"18104",-37.81547100,9-Lansdowne St/Wellington Pde (Melbourne City),144.97666400,"1","75,48"
"18105",-37.81553700,8-Spring St/Flinders St (Melbourne City),144.97417400,"1","75,35"
"19693",-37.80513500,4-Queensberry St/Swanston St (Carlton),144.96311200,"1","16,3/3a,5,6,64,67,72,1"
"19726",-37.80855100,13-Lansdowne St/Victoria Pde (East Melbourne),144.97880600,"1","12,109"
"19728",-37.80892500,15-Smith St/Victoria Pde (East Melbourne),144.98221500,"1","12,109"
"19729",-37.80929200,16-Wellington St/Victoria Pde (East Melbourne),144.98573800,"1","12,109"
"19731",-37.80979500,18-Hoddle St/Victoria Pde (Collingwood),144.99041500,"1","12,109"
"19732",-37.80978600,19-North Richmond Railway Station/Victoria St (Richmond),144.99255100,"1","12,109"
"19733",-37.81017300,20-Lennox St/Victoria St (Richmond),144.99619800,"1","12,109"
"19735",-37.81097600,22-McKay St/Victoria St (Richmond),145.00423000,"1","12,109"
"19737",-37.81150900,24-Burnley St/Victoria St (Richmond),145.01012200,"1","12,109"
"19738",-37.81182600,25-River Bvd/Victoria St (Richmond),145.01290800,"1","109"
"20979",-37.81166400,0-Bourke St/Spring St (Melbourne City),144.97324600,"1","35"
"20980",-37.75965100,38-Normanby Ave/High St (Thornbury),145.00032100,"1","86"
"21966",-37.81064800,21-Church St/Victoria St (Richmond),145.00079700,"1","12,109"
"22100",-37.80891900,15-Smith St/Victoria Pde (Fitzroy),144.98290800,"1","12,109"
"22152",-37.81421500,7-Exhibition St/Collins St (Melbourne City),144.97071200,"1","11,12,48,109"
"22559",-37.78321800,22-Scotchmer St/St Georges Rd (Fitzroy North),144.98402700,"1","11"
"19088",-37.81433000,63-Kent St/Church St (Richmond),145.00003900,"1","78"
"19089",-37.81574900,62-Highett St/Church St (Richmond),144.99977300,"1","78"
"19340",-37.79702700,112-Lygon St/Elgin St (Carlton),144.96635500,"1","6,1"
"19342",-37.79212500,114-Princes St/Lygon St (Carlton North),144.96846600,"1","6,1"
"19344",-37.78720100,116-Fenwick St/Lygon St (Carlton North),144.96930500,"1","6,1"
"19345",-37.78408300,117-Richardson St/Lygon St (Carlton North),144.96982200,"1","6,1"
"19350",-37.77251500,122-Glenlyon Rd/Lygon St (Brunswick East),144.97161400,"1","6,1"
"19351",-37.76964900,123-Albert St/Lygon St (Brunswick East),144.97211200,"1","6,1"
"19352",-37.76807700,124-Victoria St/Lygon St (Brunswick East),144.97241600,"1","6,1"
"19353",-37.76644200,125-Blyth St/Lygon St (Brunswick East),144.97272200,"1","6,1"
"19354",-37.76429500,126-Stewart St/Lygon St (Brunswick East),144.97308700,"1","6,1"
"19355",-37.76188700,127-Albion St/Holmes St (Brunswick East),144.97406100,"1","6,1"
"19356",-37.75926400,128-Mitchell St/Holmes St (Brunswick East),144.97451900,"1","6,1"
"19374",-37.80843500,13-Lansdowne St/Victoria Pde (Fitzroy),144.97834400,"1","12,109"
"19377",-37.80927100,16-Wellington St/Victoria Pde (Collingwood),144.98613600,"1","12,109"
"19379",-37.80972700,18-Hoddle St/Victoria Pde (Collingwood),144.99064400,"1","12,109"
"19381",-37.80969400,19-North Richmond Railway Station/Victoria St (Abbotsford),144.99296200,"1","12,109"
"19382",-37.80999400,20-Lennox St/Victoria St (Abbotsford),144.99576000,"1","12,109"
"19383",-37.81049000,21-Church St/Victoria St (Abbotsford),145.00051700,"1","12,109"
"19385",-37.81111100,23-Flockhart St/Victoria St (Abbotsford),145.00687300,"1","12,109"
"19489",-37.79930500,1-Melbourne University/Swanston St (Carlton),144.96419200,"1","16,3/3a,5,6,64,67,72,1"
"19491",-37.80237000,3-Lincoln Square/Swanston St (Carlton),144.96368700,"1","16,3/3a,5,6,64,67,72,1"
"19689",-37.80988900,8-Melbourne Central Station/Swanston St (Melbourne City),144.96389000,"1","16,3/3a,5,6,64,67,72,1"
"6044",-37.78024700,27-Westgarth St/High St (Northcote),144.99684800,"1","86"
"6045",-37.78357000,26-Walker St/High St (Northcote),144.99616700,"1","86"
"6046",-37.78565000,25-Clifton Hill Interchange/Queens Pde (Clifton Hill),144.99452100,"1","86"
"6047",-37.78836400,24-Michael St/Queens Pde (Clifton Hill),144.99141600,"1","86"
"6048",-37.78948100,23-Wellington St/Queens Pde (Clifton Hill),144.98875100,"1","86"
"6049",-37.79046700,22-Smith St/Queens Pde (Clifton Hill),144.98635100,"1","86"
"6050",-37.79415800,21-Alexandra Pde/Smith St (Fitzroy),144.98502500,"1","86"
"6051",-37.79678100,20-Rose St/Smith St (Collingwood),144.98456700,"1","86"
"6052",-37.79908100,19-Johnston St/Smith St (Fitzroy),144.98416400,"1","86"
"6053",-37.80157900,18-Hodgson St/Smith St (Fitzroy),144.98374400,"1","86"
"6054",-37.80361000,17-Charles St/Smith St (Fitzroy),144.98338200,"1","86"
"6056",-37.80625600,15-Smith St/Gertrude St (Fitzroy),144.98266300,"1","86"
"6057",-37.80591000,14-Napier St/Gertrude St (Fitzroy),144.97928700,"1","86"
"6058",-37.80565500,13-Brunswick St/Gertrude St (Fitzroy),144.97705700,"1","86"
"6059",-37.80189400,12-Moor St/Nicholson St (Fitzroy),144.97424000,"1","96"
"6061",-37.79840700,13-Johnston St/Nicholson St (Fitzroy),144.97481300,"1","96"
"6062",-37.79525400,14-Rose St/Nicholson St (Fitzroy),144.97538700,"1","96"
"6063",-37.79201900,15-Alexandra Pde/Nicholson St (Fitzroy North),144.97593000,"1","96"
"6064",-37.78881200,16-Freeman St/Nicholson St (Fitzroy North),144.97653900,"1","96"
"6066",-37.78558700,17-Reid St/Nicholson St (Fitzroy North),144.97713800,"1","96"
"6067",-37.78307200,18-Scotchmer St/Nicholson St (Fitzroy North),144.97760400,"1","96"
"6068",-37.77993700,19-Holden St/Nicholson St (Fitzroy North),144.97816700,"1","96"
"6069",-37.77678200,20-Miller St/Nicholson St (Fitzroy North),144.97867300,"1","96"
"6070",-37.77318800,21-Glenlyon Rd/Nicholson St (Fitzroy North),144.97928200,"1","96"
"6071",-37.77042200,22-Albert St/Nicholson St (Brunswick East),144.97983400,"1","96"
"6106",-37.75836000,39-Gooch St/High St (Thornbury),145.00074100,"1","86"
"6107",-37.75944700,38-Clarendon St/High St (Thornbury),145.00055300,"1","86"
"6108",-37.76123600,37-Woolton Ave/High St (Thornbury),145.00025500,"1","86"
"6109",-37.76315000,36-Darebin Rd/High St (Thornbury),144.99995400,"1","86"
"6110",-37.76555800,35-Dennis St/High St (Northcote),144.99952600,"1","86"
"6111",-37.76747300,34-McCutcheon St/High St (Northcote),144.99928100,"1","86"
"6112",-37.76919300,33-Separation St/High St (Northcote),144.99917800,"1","86"
"6113",-37.77139200,32-Mitchell St/High St (Northcote),144.99866500,"1","86"
"6114",-37.77500200,31-Northcote Town Hall/High St (Northcote),144.99792000,"1","86"
"6115",-37.77716600,30-Clarke St/High St (Northcote),144.99744200,"1","86"
"6118",-37.78087600,27-Westgarth St/High St (Northcote),144.99672800,"1","86"
"6119",-37.78389400,26-Walker St/High St (Northcote),144.99618100,"1","86"
"6120",-37.78631700,25-Clifton Hill Interchange/Queens Pde (Clifton Hill),144.99399200,"1","86"
"6121",-37.78893900,24-Gold St/Queens Pde (Fitzroy North),144.99026500,"1","86"
"6122",-37.78973500,23-Wellington St/Queens Pde (Clifton Hill),144.98834700,"1","86"
"6123",-37.79063600,22-Smith St/Queens Pde (Clifton Hill),144.98621000,"1","86"
"6124",-37.79362100,21-Alexandra Pde/Smith St (Clifton Hill),144.98527800,"1","86"
"6125",-37.79669400,20-Keele St/Smith St (Fitzroy),144.98475100,"1","86"
"6126",-37.79884200,19-Johnston St/Smith St (Fitzroy),144.98437500,"1","86"
"6127",-37.80139400,18-Hodgson St/Smith St (Fitzroy),144.98396500,"1","86"
"6128",-37.80346100,17-Charles St/Smith St (Fitzroy),144.98361300,"1","86"
"6129",-37.80486200,16-Peel St/Smith St (Collingwood),144.98334800,"1","86"
"6130",-37.80623600,15-Gertrude St/Smith St (Fitzroy),144.98309500,"1","86"
"6131",-37.80609000,14-Napier St/Gertrude St (Fitzroy),144.97980500,"1","86"
"6132",-37.80582300,13-Brunswick St/Gertrude St (Fitzroy),144.97738100,"1","86"
"6133",-37.80158700,12-Moor St/Nicholson St (Fitzroy),144.97423700,"1","96"
"6135",-37.79761600,13-Johnston St/Nicholson St (Carlton),144.97494800,"1","96"
"6136",-37.79524400,14-Rose St/Nicholson St (Carlton),144.97531900,"1","96"
"6137",-37.79172200,15-Alexandra Pde/Nicholson St (Carlton),144.97593800,"1","96"
"6138",-37.78851500,16-Freeman St/Nicholson St (Fitzroy North),144.97654800,"1","96"
"6140",-37.78525400,17-Reid St/Nicholson St (Carlton North),144.97714800,"1","96"
"6141",-37.78273900,18-Scotchmer St/Nicholson St (Carlton North),144.97762500,"1","96"
"6142",-37.77933400,19-Brunswick Rd/Nicholson St (Fitzroy),144.97822900,"1","96"
"6143",-37.77678100,20-Miller St/Nicholson St (Brunswick East),144.97862700,"1","96"
"6144",-37.77414000,21-Glenlyon Rd/Nicholson St (Brunswick East),144.97908500,"1","96"
"6145",-37.77025800,22-Albert St/Nicholson St (Brunswick East),144.97973600,"1","96"
"6147",-37.76696900,23-Blyth St/Nicholson St (Brunswick East),144.98030200,"1","96"
"4141",-37.80585500,13-Gertrude St/Brunswick St (Fitzroy),144.97711900,"1","11"
"4142",-37.80283500,14-Hanover St/Brunswick St (Fitzroy),144.97761100,"1","11"
"4143",-37.80044500,15-Bell St/Brunswick St (Fitzroy),144.97803900,"1","11"
"4144",-37.79853100,16-Johnston St/Brunswick St (Fitzroy),144.97836400,"1","11"
"4145",-37.79562900,17-Leicester St/Brunswick St (Fitzroy),144.97885200,"1","11"
"4146",-37.79362500,18-Alexandra Pde/Brunswick St (Fitzroy),144.97919000,"1","11"
"4147",-37.79080300,19-Newry St/Brunswick St (Fitzroy North),144.97966500,"1","11"
"4148",-37.78829700,20-Fitzroy Bowls Club/Brunswick St (Fitzroy North),144.98009600,"1","11"
"4149",-37.78542600,21-Alfred Cres/St Georges Rd (Fitzroy North),144.98191200,"1","11"
"4150",-37.78341000,22-Scotchmer St/St Georges Rd (Fitzroy North),144.98364700,"1","11"
"4151",-37.78150900,23-Park St/St Georges Rd (Fitzroy North),144.98527700,"1","11"
"4152",-37.78007100,24-Holden St/St Georges Rd (Fitzroy North),144.98652000,"1","11"
"4153",-37.77801900,25-Miller St/St Georges Rd (Fitzroy North),144.98830100,"1","11"
"4154",-37.77592600,26-Clarke St/St Georges Rd (Northcote),144.98975500,"1","11"
"4155",-37.77381500,27-Westbourne Gr/St Georges Rd (Northcote),144.99015200,"1","11"
"4156",-37.77157100,28-Sumner Ave/St Georges Rd (Northcote),144.99063300,"1","11"
"4157",-37.76855300,29-Arthurton Rd/St Georges Rd (Northcote),144.99123700,"1","11"
"4158",-37.76529400,30-Gladstone Ave/St Georges Rd (Northcote),144.99195000,"1","11"
"4159",-37.76244800,31-Bird Ave/St Georges Rd (Northcote),144.99259400,"1","11"
"4160",-37.75895400,32-Normanby Ave/St Georges Rd (Thornbury),144.99325600,"1","11"
"4450",-37.80559700,13-Gertrude St/Brunswick St (Fitzroy),144.97731900,"1","11"
"4451",-37.80270300,14-King William St/Brunswick St (Fitzroy),144.97780700,"1","11"
"4452",-37.80053800,15-St David St/Brunswick St (Fitzroy),144.97818400,"1","11"
"4453",-37.79816600,16-Johnston St/Brunswick St (Fitzroy),144.97859000,"1","11"
"4454",-37.79546100,17-Leicester St/Brunswick St (Fitzroy),144.97903800,"1","11"
"4455",-37.79292700,18-Alexandra Pde/Brunswick St (Fitzroy North),144.97945900,"1","11"
"4456",-37.79053700,19-Newry St/Brunswick St (Fitzroy North),144.97988800,"1","11"
"4457",-37.78817400,20-Fitzroy Bowls Club/Brunswick St (Fitzroy North),144.98029300,"1","11"
"4458",-37.78538500,21-Alfred Cres/St Georges Rd (Fitzroy North),144.98215200,"1","11"
"4460",-37.78173500,23-Park St/St Georges Rd (Fitzroy North),144.98529400,"1","11"
"4461",-37.77987900,24-Holden St/St Georges Rd (Fitzroy North),144.98688800,"1","11"
"4462",-37.77795200,25-Miller St/St Georges Rd (Fitzroy North),144.98855300,"1","11"
"4463",-37.77573900,26-Clarke St/St Georges Rd (Northcote),144.98986200,"1","11"
"4464",-37.77366500,27-Westbourne Gr/St Georges Rd (Northcote),144.99029300,"1","11"
"4465",-37.77147300,28-Sumner Ave/St Georges Rd (Northcote),144.99072700,"1","11"
"4466",-37.76814500,29-Arthurton Rd/St Georges Rd (Northcote),144.99160000,"1","11"
"4468",-37.76519800,30-Gladstone Ave/St Georges Rd (Northcote),144.99215700,"1","11"
"4469",-37.76262800,31-Gadd St/St Georges Rd (Northcote),144.99256700,"1","11"
"4470",-37.75846200,32-Normanby Ave/St Georges Rd (Thornbury),144.99350800,"1","11"
"6032",-37.75832100,39-Ballantyne St/High St (Thornbury),145.00054900,"1","86"
"6034",-37.76152900,37-Woolton Ave/High St (Thornbury),145.00004300,"1","86"
"6035",-37.76332600,36-Darebin Rd/High St (Thornbury),144.99968800,"1","86"
"6036",-37.76573400,35-Dennis St/High St (Northcote),144.99926000,"1","86"
"6037",-37.76761400,34-Bent St/High St (Northcote),144.99909600,"1","86"
"6038",-37.76941300,33-Arthurton Rd/High St (Northcote),144.99890000,"1","86"
"6039",-37.77113800,32-Mitchell St/High St (Northcote),144.99856900,"1","86"
"6040",-37.77471200,31-Northcote Town Hall/High St (Northcote),144.99783700,"1","86"
"6041",-37.77669000,30-Clarke St/High St (Northcote),144.99753400,"1","86"
"18573",-37.83663200,26-Ferrars St/Park St (South Melbourne),144.95640500,"1","1"
"18658",-37.83752200,27-Park St/Montague St (South Melbourne),144.95417600,"1","1"
"18659",-37.84067900,28-Montague St/Bridport St (Albert Park),144.95538400,"1","1"
"18660",-37.84156300,29-Bridport St/Victoria Ave (Albert Park),144.95333700,"1","1"
"18661",-37.84394200,30-Richardson St/Victoria Ave (Albert Park),144.95128300,"1","1"
"18662",-37.84567400,31-Graham St/Victoria Ave (Albert Park),144.94982600,"1","1"
"18663",-37.84712400,32-Beaconsfield Pde/Victoria Ave (Albert Park),144.94872900,"1","1"
"18184",-37.82568800,125-Clarendon St/Whiteman St (Southbank),144.95668400,"1","12,96,109"
"18217",-37.82961000,117-York St/Kings Way (South Melbourne),144.96407500,"1","58"
"18218",-37.83053600,118-Sturt St/Kings Way (Southbank),144.96500400,"1","58"
"18219",-37.83280000,119-Wells St/Park St (South Melbourne),144.96981600,"1","58"
"18221",-37.83289000,119-Wells St/Park St (South Melbourne),144.96980200,"1","58"
"18222",-37.83107400,118-Sturt St/Kings Way (Southbank),144.96537500,"1","58"
"18223",-37.82957100,117-York St/Kings Way (South Melbourne),144.96390600,"1","58"
"18224",-37.83009100,20-Kings Way/Sturt St (Southbank),144.96533400,"1","1"
"18225",-37.82843100,19-Miles St/Sturt St (Southbank),144.96575500,"1","1"
"18226",-37.82577900,18-Grant St/Sturt St (Southbank),144.96663400,"1","1"
"18230",-37.82592400,18-Grant St/Sturt St (Southbank),144.96666400,"1","1"
"18231",-37.82818400,19-Miles St/Sturt St (Southbank),144.96605700,"1","1"
"18232",-37.83011900,20-Kings Way/Sturt St (Southbank),144.96539000,"1","1"
"18233",-37.82626000,116-City Rd/Kings Way (Southbank),144.96057700,"1","58"
"18481",-37.83223000,22-Dorcas St/Eastern Rd (South Melbourne),144.96495700,"1","1"
"18482",-37.83447200,23-Moray St/Park St (South Melbourne),144.96385000,"1","1"
"18483",-37.83520300,24-Clarendon St/Park St (South Melbourne),144.96130800,"1","1"
"18484",-37.83594600,25-Cecil St/Park St (South Melbourne),144.95891200,"1","1"
"19721",-37.82769100,125A-Southbank Tram Depot/Light Rail (South Melbourne),144.95370900,"1","12,109"
"19722",-37.83019100,126-Montague St/Light Rail (South Melbourne),144.94876600,"1","109"
"19723",-37.83343100,127-North Port Station/Light Rail (Port Melbourne),144.94333600,"1","109"
"19724",-37.83703200,128-Graham St/Light Rail (Port Melbourne),144.93746300,"1","109"
"19725",-37.84078900,129-Beacon Cove/Light Rail (Port Melbourne),144.93281300,"1","109"
"20494",-37.82955100,126-City Rd/Light Rail (South Melbourne),144.95444200,"1","96"
"20495",-37.82918900,126-City Rd/Light Rail (South Melbourne),144.95437200,"1","96"
"20496",-37.83315600,127-South Melbourne Station/Light Rail (South Melbourne),144.95549000,"1","96"
"20497",-37.83303500,127-South Melbourne Station/Light Rail (South Melbourne),144.95528900,"1","96"
"20498",-37.84023300,128-Albert Park Station/Light Rail (South Melbourne),144.95874900,"1","96"
"20499",-37.84007600,128-Albert Park Station/Light Rail (South Melbourne),144.95857100,"1","96"
"20500",-37.84526700,129-Melbourne Sports and Aquatic Centre/Light Rail (Middle Park),144.96166700,"1","96"
"20501",-37.84548300,129-Melbourne Sports and Aquatic Centre/Light Rail (Middle Park),144.96167200,"1","96"
"20502",-37.84962600,130-Middle Park Station/Light Rail (Middle Park),144.96568400,"1","96"
"20503",-37.84958500,130-Middle Park Station/Light Rail (Middle Park),144.96540100,"1","96"
"20504",-37.85376400,131-Fraser St/Light Rail (Middle Park),144.97102600,"1","96"
"20505",-37.85398300,131-Fraser St/Light Rail (Middle Park),144.97116700,"1","96"
"4124",-37.83098200,127-York St/Clarendon St (South Melbourne),144.95952600,"1","12"
"4125",-37.82722300,126-City Rd/Clarendon St (South Melbourne),144.95786900,"1","12"
"4126",-37.83761400,130a-Raglan St/Clarendon St (South Melbourne),144.96258200,"1","12"
"4127",-37.83952000,130-Clarendon St/Albert Rd (South Melbourne),144.96287100,"1","12"
"4128",-37.84068800,131-Melbourne Sports & Aquatic Centre/Albert Rd (Albert Park),144.96111100,"1","12"
"4129",-37.84245100,132-Kerferd Rd/Canterbury Rd (Albert Park),144.95934700,"1","12"
"4130",-37.84406900,133-Canterbury Rd/Mills St (Middle Park),144.96013200,"1","12"
"4131",-37.84559700,134-Carter St/Mills St (Middle Park),144.95887400,"1","12"
"4132",-37.84741000,135-Richardson St/Mills St (Middle Park),144.95740300,"1","12"
"4133",-37.84973900,136-Mills St/Danks St (Middle Park),144.95607700,"1","12"
"4134",-37.85136100,137-Harold St/Danks St (Middle Park),144.95918100,"1","12"
"22612",-37.82630000,116-City Rd/Kings Way (Southbank),144.96080300,"1","58"
"4039",-37.83315300,128-Dorcas St/Clarendon St (South Melbourne),144.96053500,"1","12"
"4084",-37.83543400,129-Park St/Clarendon St (South Melbourne),144.96158500,"1","12"
"19304",-37.82607600,125-Port Junction/79 Whiteman St (Southbank),144.95620800,"1","12,96,109"
"19305",-37.83217100,22-Dorcas St/Eastern Rd (South Melbourne),144.96518600,"1","1"
"19306",-37.83450800,23-Moray St/Park St (South Melbourne),144.96434900,"1","1"
"19307",-37.83522300,24-Clarendon St/Park St (South Melbourne),144.96194400,"1","1"
"19308",-37.83613800,25-Cecil St/Park St (South Melbourne),144.95856600,"1","1"
"19309",-37.83664200,26-Ferrars St/Park St (South Melbourne),144.95697300,"1","1"
"19310",-37.83732900,27-Montague St/Park St (South Melbourne),144.95446600,"1","1"
"19311",-37.84042300,28-Bridport St/Montague St (Albert Park),144.95572100,"1","1"
"19312",-37.84172500,29-Bridport St/Victoria Ave (Albert Park),144.95336700,"1","1"
"19313",-37.84378700,30-Richardson St/Victoria Ave (Albert Park),144.95168500,"1","1"
"19314",-37.84576700,31-Graham St/Victoria Ave (Albert Park),144.95001600,"1","1"
"19369",-37.82745300,125A-Southbank Tram Depot/Light Rail (South Melbourne),144.95398800,"1","12,109"
"19370",-37.83024000,126-Montague St/Light Rail (South Melbourne),144.94846900,"1","109"
"19371",-37.83320800,127-North Port Station/Light Rail (Port Melbourne),144.94349000,"1","109"
"19372",-37.83705400,128-Graham St/Light Rail (Port Melbourne),144.93719000,"1","109"
"19504",-37.82879900,19-Shrine of Remembrance/St Kilda Rd (Melbourne City),144.97136900,"1","3/3a,5,6,64,67,72,16"
"19505",-37.83152100,20-Park Street/St Kilda Rd (Melbourne City),144.97138500,"1","3/3a,5,6,64,67,72,16"
"19678",-37.83205700,20-Park Street/St Kilda Rd (Melbourne City),144.97165400,"1","3/3a,5,6,64,67,72,16"
"19679",-37.82893100,19-Shrine of Remembrance/St Kilda Rd (Melbourne City),144.97122900,"1","3/3a,5,6,64,67,72,16"
"4138",-37.85575700,140-Fraser St/Park St (St Kilda West),144.96742500,"1","12"
"4139",-37.85478800,139-Langridge St/Patterson St (Middle Park),144.96558700,"1","12"
"4140",-37.85307500,138-Armstrong St/Danks St (Middle Park),144.96245200,"1","12"
"4323",-37.83060500,127-York St/Clarendon St (South Melbourne),144.95959400,"1","12"
"4324",-37.82806000,126-City Rd/Clarendon St (South Melbourne),144.95834600,"1","12"
"4331",-37.83279400,128-Dorcas St/Clarendon St (South Melbourne),144.96061300,"1","12"
"4332",-37.83502900,129-Park St/Clarendon St (South Melbourne),144.96166500,"1","12"
"4333",-37.83894300,130-Albert Rd/Clarendon St (South Melbourne),144.96336400,"1","12"
"4334",-37.84057700,131-Melbourne Sports & Aquatic Centre/Albert Rd (Albert Park),144.96145500,"1","12"
"4384",-37.84228300,132-Canterbury Rd/Albert Rd (Albert Park),144.95952200,"1","12"
"4440",-37.84450000,133-Canterbury Rd/Mills St (Middle Park),144.96006300,"1","12"
"4441",-37.84566400,134-Carter St/Mills St (Middle Park),144.95909900,"1","12"
"4442",-37.84722700,135-Richardson St/Mills St (Middle Park),144.95780600,"1","12"
"4443",-37.84932400,136-Danks St/Mills St (Middle Park),144.95607700,"1","12"
"4444",-37.85101300,137-Harold St/Danks St (Middle Park),144.95887200,"1","12"
"4447",-37.85542700,140-Fraser St/Patterson St (Middle Park),144.96712700,"1","12"
"4448",-37.85446800,139-Langridge St/Patterson St (Middle Park),144.96530100,"1","12"
"4449",-37.85270100,138-Armstrong St/Danks St (Middle Park),144.96216700,"1","12"
"18732",-37.81137500,44-Deepdene Park/Whitehorse Rd (Balwyn),145.06867100,"1","109"
"18733",-37.81175000,45-Hardwicke St/Whitehorse Rd (Balwyn),145.07178500,"1","109"
"18734",-37.81224200,46-Balwyn Cinema/Whitehorse Rd (Balwyn),145.07593000,"1","109"
"18735",-37.81291900,47-Balwyn Rd/Whitehorse Rd (Balwyn),145.08152400,"1,2","109"
"18736",-37.81319900,48-Balwyn Shopping Centre/Whitehorse Rd (Balwyn),145.08378800,"1,2","109"
"18737",-37.81369000,49-Northcote Ave/Whitehorse Rd (Balwyn),145.08795600,"1,2","109"
"18738",-37.81456400,51-Narrak Rd/Whitehorse Rd (Mont Albert),145.09517000,"1,2","109"
"18948",-37.85225900,45-Elizabeth St/Malvern Rd (Malvern),145.03530400,"1","72"
"18949",-37.85278400,46-Meredith St/Malvern Rd (Malvern),145.03923400,"1","72"
"18950",-37.85312800,47-Tooronga Rd/Malvern Rd (Malvern),145.04198700,"1","72"
"18951",-37.85355600,48-Edgar St/Malvern Rd (Malvern),145.04555500,"1","72"
"18952",-37.85390000,49-Kenilworth Gr/Malvern Rd (Malvern),145.04832000,"1","72"
"18953",-37.85432200,50-Burke Rd/Malvern Rd (Malvern),145.05149100,"1","72"
"18954",-37.85285400,51-Gardiner Railway Station/Burke Rd (Hawthorn East),145.05267700,"1","72"
"18955",-37.84977800,52-Harris Ave/Burke Rd (Hawthorn East),145.05304200,"1","72"
"18956",-37.84817100,53-Faircroft Ave/Burke Rd (Hawthorn East),145.05339200,"1","72"
"18957",-37.84580000,54-Toorak Rd/Burke Rd (Glen Iris),145.05387400,"1","72"
"18958",-37.84379600,55-Middle Rd/Burke Rd (Hawthorn East),145.05424500,"1","72"
"18959",-37.84185600,56-Anderson Rd/Burke Rd (Hawthorn East),145.05462600,"1","72"
"18960",-37.84025700,57-Pine Ave/Burke Rd (Hawthorn East),145.05494100,"1","72"
"18961",-37.83816400,58-Leura Gr/Burke Rd (Hawthorn East),145.05533600,"1","72"
"18962",-37.83541500,59-Pleasant Rd/Burke Rd (Hawthorn East),145.05582900,"1","72"
"18963",-37.83371700,60-Campbell Rd/Burke Rd (Hawthorn East),145.05615800,"1","72"
"18964",-37.83157000,61-Riversdale Rd/Burke Rd (Hawthorn East),145.05656600,"1","72"
"18965",-37.83020400,62-Camberwell Shopping Centre/755 Burke Rd (Hawthorn East),145.05681800,"1","72"
"18966",-37.82821900,63-Prospect Hill Rd/Burke Rd (Hawthorn East),145.05722200,"1","72"
"19041",-37.82343400,65-Victoria Rd/Burke Rd (Camberwell),145.05831300,"1","72"
"18967",-37.82605400,64-Camberwell Station/Burke Rd (Hawthorn East),145.05763100,"1","72"
"18968",-37.82358300,65-Victoria Rd/Burke Rd (Hawthorn East),145.05806000,"1","72"
"18969",-37.82148100,66-Rathmines Rd/Burke Rd (Hawthorn East),145.05846700,"1","72"
"18970",-37.81858900,67-Camberwell Girls Grammar/Burke Rd (Hawthorn East),145.05905400,"1","72"
"18971",-37.81599200,68-Mont Albert Rd/Burke Rd (Kew),145.05954200,"1","72"
"18972",-37.81413200,69-Sackville St/Burke Rd (Kew),145.05987500,"1","72"
"19036",-37.81087300,70-Cotham Rd/Burke Rd (Kew),145.06059600,"1","72"
"19037",-37.81410800,69-Peverill St/Burke Rd (Balwyn),145.06006900,"1","72"
"19038",-37.81574300,68-Mont Albert Rd/Burke Rd (Camberwell),145.05976500,"1","72"
"19039",-37.81849200,67-Camberwell Girls Grammar/Burke Rd (Canterbury),145.05922700,"1","72"
"19040",-37.82128700,66-Canterbury Rd/Burke Rd (Camberwell),145.05872200,"1","72"
"19042",-37.82596700,64-Camberwell Station/Burke Rd (Camberwell),145.05781500,"1","72"
"19043",-37.82802400,63-Prospect Hill Rd/Burke Rd (Camberwell),145.05743200,"1","72"
"19044",-37.83108800,61-Camberwell Junction/Burke Rd (Camberwell),145.05684000,"1","72"
"19045",-37.83389000,60-Reserve Rd/Burke Rd (Camberwell),145.05631200,"1","72"
"19046",-37.83519300,59-Seymour Gr/Burke Rd (Camberwell),145.05607400,"1","72"
"19047",-37.83808600,58-Currajong Ave/Burke Rd (Camberwell),145.05552000,"1","72"
"19048",-37.84006200,57-Pine Ave/Burke Rd (Camberwell),145.05513900,"1","72"
"19049",-37.84158900,56-Anderson Rd/Burke Rd (Camberwell),145.05484900,"1","72"
"19050",-37.84365600,55-Middle Rd/Burke Rd (Camberwell),145.05445400,"1","72"
"19051",-37.84561400,54-Toorak Rd/Burke Rd (Camberwell),145.05408400,"1","72"
"19052",-37.84787800,53-Howitt St/Burke Rd (Glen Iris),145.05362700,"1","72"
"19053",-37.84988100,52-Bickleigh St/Burke Rd (Glen Iris),145.05322200,"1","72"
"19054",-37.85296200,51-Gardiner Station/Burke Rd (Glen Iris),145.05266300,"1","72"
"19056",-37.85441800,50-Glenarm Rd/Malvern Rd (Glen Iris),145.05129500,"1","72"
"19057",-37.85404600,49-Belmont Ave/Malvern Rd (Glen Iris),145.04841800,"1","72"
"19058",-37.85373200,48-Edgar St/Malvern Rd (Glen Iris),145.04583500,"1","72"
"19059",-37.85330400,47-Tooronga Rd/Malvern Rd (Glen Iris),145.04230000,"1","72"
"19060",-37.85285900,46-Shaftesbury Ave/Malvern Rd (Malvern),145.03882300,"1","72"
"19061",-37.85243400,45-Elizabeth St/Malvern Rd (Malvern),145.03550400,"1","72"
"19076",-37.88850200,57-Clarke Ave/Glenhuntly Rd (Caulfield East),145.03511400,"1","67"
"19077",-37.88879400,58-Booran Rd/Glenhuntly Rd (Caulfield East),145.03754000,"1","67"
"19078",-37.88913200,60-Glenhuntly Shops/Glenhuntly Rd (Caulfield East),145.04047600,"1","67"
"19079",-37.88930700,61-Glenhuntly Railway Station/Glenhuntly Rd (Caulfield South),145.04182400,"1","67"
"19081",-37.88963300,62-Grange Rd/Glenhuntly Rd (Caulfield East),145.04459000,"1","67"
"18648",-37.87395900,54-Kambrook Rd/Balaclava Rd (Caulfield North),145.03581900,"1",3/3a
"18649",-37.87419800,55-Normanby Rd/Balaclava Rd (Caulfield North),145.03770000,"1",3/3a
"18650",-37.87541600,56-Caulfield Racecourse/Normanby Rd (Caulfield North),145.03939600,"1",3/3a
"18651",-37.87640000,57-Caulfield Railway Station/Derby Rd (Caulfield East),145.04167700,"1",3/3a
"18652",-37.87570900,58-Dandenong Rd/Derby Rd (Caulfield North),145.04186600,"1",3/3a
"18653",-37.87576000,59-Dandenong Rd/Waverley Rd (Malvern East),145.04494600,"1",3/3a
"18654",-37.87589300,60-Burke Rd/Waverley Rd (Malvern East),145.04804600,"1",3/3a
"18655",-37.87624700,61-Tennyson St/Waverley Rd (Malvern East),145.05093600,"1",3/3a
"18656",-37.87669700,62-The Avenue/Waverley Rd (Malvern East),145.05468700,"1",3/3a
"18657",-37.87691700,63-Oak Gr/Waverley Rd (Malvern East),145.05654600,"1",3/3a
"18710",-37.81092500,43-Deepdene Shopping Centre/Whitehorse Rd (Balwyn),145.06487700,"1","109"
"1185",-37.86422600,50-Vincent St/Wattletree Rd (Malvern East),145.04337500,"1","5"
"1291",-37.86461300,51-Erica Ave/Wattletree Rd (Malvern East),145.04657100,"1","5"
"1575",-37.86507600,52-Burke Rd/Wattletree Rd (Malvern East),145.05007100,"1","5"
"16749",-37.85738300,46-Fraser St/High St (Malvern),145.03561100,"1","6"
"16750",-37.85769400,47-Dixon St/High St (Malvern),145.03801300,"1","6"
"16751",-37.85807800,48-Tooronga Rd/High St (Glen Iris),145.04104900,"1","6"
"16752",-37.85845400,49-Harold Holt Swim Centre/High St (Glen Iris),145.04419800,"1","6"
"16753",-37.85894500,50-Belmont Ave/High St (Glen Iris),145.04825500,"1","6"
"16754",-37.85931000,51-Burke Rd/High St (Glen Iris),145.05121200,"1","6"
"16755",-37.85961400,52-Boyanda Rd/High St (Glen Iris),145.05379500,"1","6"
"16757",-37.85999800,53-Malvern Rd/High St (Glen Iris),145.05633100,"1","6"
"16758",-37.85978200,52-Boyanda Rd/High St (Glen Iris),145.05418900,"1","6"
"16759",-37.85948600,51-Burke Rd/High St (Glen Iris),145.05150300,"1","6"
"16760",-37.85911000,50-Belmont Ave/High St (Glen Iris),145.04840900,"1","6"
"16761",-37.85867000,49-Harold Holt Swim Centre/High St (Glen Iris),145.04470400,"1","6"
"16762",-37.85827200,48-Tooronga Rd/High St (Glen Iris),145.04136200,"1","6"
"16764",-37.85782000,47-Dixon St/High St (Malvern),145.03800900,"1","6"
"16765",-37.85755800,46-Fraser St/High St (Malvern),145.03580000,"1","6"
"1696",-37.86478200,51-Nott St/Wattletree Rd (Malvern East),145.04699800,"1","5"
"1789",-37.86438500,50-Anderson St/Wattletree Rd (Malvern East),145.04371200,"1","5"
"18400",-37.88867000,57-Laura St/Glenhuntly Rd (Caulfield),145.03548500,"1","67"
"18401",-37.88896100,58-Booran Rd/Glenhuntly Rd (Caulfield),145.03780800,"1","67"
"18403",-37.88930800,60-Glenhuntly Shops/Glenhuntly Rd (Glen Huntly),145.04076700,"1","67"
"18404",-37.88954800,61-Glenhuntly Railway Station/Glenhuntly Rd (Glen Huntly),145.04275000,"1","67"
"18405",-37.88983800,62-Grange Rd/Glenhuntly Rd (Glen Huntly),145.04504000,"1","67"
"18406",-37.89014300,63-Maroona Rd/Glenhuntly Rd (Carnegie),145.04765800,"1","67"
"18407",-37.89040600,64-Mernda Ave/Glenhuntly Rd (Carnegie),145.04990300,"1","67"
"18408",-37.89071400,65-Mimosa Rd/Glenhuntly Rd (Carnegie),145.05219200,"1","67"
"18409",-37.89106900,66-Glenhuntly Rd/Truganini Rd (Carnegie),145.05404800,"1","67"
"18410",-37.89269700,67-Centre Rd/Truganini Rd (Carnegie),145.05436900,"1","67"
"18411",-37.89386500,68-Carnegie/Truganini Rd (Carnegie),145.05580500,"1","67"
"18451",-37.87726900,64-Darling Rd/Waverley Rd (Malvern East),145.05876500,"1",3/3a
"18452",-37.87710300,63-Hughes St/Waverley Rd (Malvern East),145.05690500,"1",3/3a
"18453",-37.87687300,62-Macgregor St/Waverley Rd (Malvern East),145.05500100,"1",3/3a
"18454",-37.87637600,61-Tennyson St/Waverley Rd (Malvern East),145.05108000,"1",3/3a
"18455",-37.87605100,60-Burke Rd/Waverley Rd (Malvern East),145.04832600,"1",3/3a
"18456",-37.87584400,59-Dandenong Rd/Waverley Rd (Caulfield East),145.04506900,"1",3/3a
"18457",-37.87640400,57-Caulfield Railway Station/Derby Rd (Caulfield East),145.04193900,"1",3/3a
"18459",-37.87535700,56-Caulfield Racecourse/Normanby Rd (Caulfield East),145.03910200,"1",3/3a
"18460",-37.87449400,55-Balaclava Rd/Normanby Rd (Caulfield East),145.03813500,"1",3/3a
"18461",-37.87414500,54-Kambrook Rd/Balaclava Rd (Caulfield East),145.03613200,"1",3/3a
"18479",-37.81410600,50-Wharton St/Whitehorse Rd (Surrey Hills),145.09137600,"1,2","109"
"19754",-37.82930800,34-Kooyongkoot Rd/Riversdale Rd (Hawthorn),145.03864000,"1","75,70"
"19755",-37.82966200,35-Robinson Rd/Riversdale Rd (Hawthorn),145.04152800,"1","75,70"
"19756",-37.82994300,36-Auburn Rd/Riversdale Rd (Hawthorn East),145.04378100,"1","75,70"
"19757",-37.83038000,37-Tooronga Rd/Riversdale Rd (Hawthorn East),145.04784900,"1","75,70"
"19758",-37.83083900,38-Hastings Rd/Riversdale Rd (Hawthorn East),145.05162000,"1","75,70"
"19759",-37.83121600,39-Camberwell Tram Depot/Riversdale Rd (Hawthorn East),145.05479200,"1","75,70"
"19760",-37.83148900,40-Camberwell Junction/Riversdale Rd (Camberwell),145.05714800,"1","70"
"19761",-37.83182800,42-Fermanagh Rd/Riversdale Rd (Camberwell),145.06018400,"1","70"
"19762",-37.83224800,43-Trafalgar Rd/Riversdale Rd (Camberwell),145.06385500,"1","70"
"19763",-37.83248300,44-Derby St/Riversdale Rd (Camberwell),145.06606400,"1","70"
"19764",-37.83294200,46-Spencer Rd/Riversdale Rd (Camberwell),145.06987000,"1","70"
"19765",-37.83327600,47-Willow Gr/Riversdale Rd (Camberwell),145.07266800,"1","70"
"19766",-37.83379300,48-Cooloongatta Rd/Riversdale Rd (Camberwell),145.07724500,"1","70"
"19767",-37.83408400,49-Glyndon Rd/Riversdale Rd (Camberwell),145.07964600,"1","70"
"19768",-37.83429500,50-Wattle Valley Rd/Riversdale Rd (Canterbury),145.08151600,"1","70"
"19769",-37.83453400,51-Highfield Rd/Riversdale Rd (Camberwell),145.08514500,"1","70"
"19770",-37.83492300,52-Lockhart St/Riversdale Rd (Camberwell),145.08853300,"1","70"
"19771",-37.83521500,53-Essex Rd/Riversdale Rd (Camberwell),145.09096800,"1","70"
"19772",-37.83553100,54-Through Rd/Riversdale Rd (Camberwell),145.09380100,"1","70"
"19773",-37.83576200,55-Union Rd/Riversdale Rd (Canterbury),145.09581800,"1","70"
"19774",-37.83606500,56-Warrigal Rd/Riversdale Rd (Surrey Hills),145.09838900,"1","70"
"19775",-37.83627100,57-Glendale St/Riversdale Rd (Surrey Hills),145.10002000,"1","70"
"19776",-37.83675500,58-Wattle Park/1013 Riversdale Rd (Surrey Hills),145.10261000,"1","70"
"19777",-37.83699700,59-Alandale St/Riversdale Rd (Surrey Hills),145.10480800,"1","70"
"19779",-37.83720800,60-Ferndale St/Riversdale Rd (Surrey Hills),145.10668900,"1","70"
"19784",-37.81634100,55-Hood St/Whitehorse Rd (Mont Albert),145.10982400,"1,2","109"
"19785",-37.81548000,54-Inglisby Rd/Whitehorse Rd (Mont Albert),145.10275700,"1,2","109"
"19786",-37.81511200,53-Union Rd/Whitehorse Rd (Surrey Hills),145.09951800,"1,2","109"
"20560",-37.82889900,70-Riversdale Rd/Glenferrie Rd (Hawthorn),145.03409400,"1","16"
"20561",-37.82863200,70-Riversdale Rd/Glenferrie Rd (Hawthorn),145.03432900,"1","16"
"20562",-37.82604100,71-Urquhart St/Glenferrie Rd (Hawthorn),145.03461300,"1","16"
"20563",-37.82597300,71-Urquhart St/Glenferrie Rd (Hawthorn),145.03484200,"1","16"
"20564",-37.82415500,72-Manningtree Rd/Glenferrie Rd (Hawthorn),145.03497000,"1","16"
"20565",-37.82402300,72-Manningtree Rd/Glenferrie Rd (Hawthorn),145.03519000,"1","16"
"20566",-37.82270900,73-Burwood Rd/Glenferrie Rd (Hawthorn),145.03527000,"1","16"
"20567",-37.82249600,73-Burwood Rd/Glenferrie Rd (Hawthorn),145.03544600,"1","16"
"20568",-37.82053500,74-Glenferrie Railway Station/Glenferrie Rd (Hawthorn),145.03566800,"1","16"
"20569",-37.82053500,74-Glenferrie Station/Glenferrie Rd (Hawthorn),145.03566800,"1","16"
"20570",-37.81888100,75-Chrystobel Cres/Glenferrie Rd (Hawthorn),145.03596200,"1","16"
"20571",-37.81860600,75-Liddiard St/Glenferrie Rd (Hawthorn),145.03621900,"1","16"
"20572",-37.81685100,76-Johnson St/Glenferrie Rd (Hawthorn),145.03631100,"1","16"
"20573",-37.81677400,76-Johnson St/Glenferrie Rd (Hawthorn),145.03658600,"1","16"
"20589",-37.81461700,77-Barkers Rd/Glenferrie Rd (Hawthorn),145.03692700,"1","16"
"21061",-37.83208400,41-Burke Rd/Camberwell Rd (Camberwell),145.05772300,"1,2","75"
"21062",-37.83304900,42-Camberwell Primary School/Camberwell Rd (Camberwell),145.05886800,"1,2","75"
"21063",-37.83333900,42-Camberwell Primary School/Camberwell Rd (Camberwell),145.05892900,"1,2","75"
"21064",-37.83456600,43-Camberwell Civic Centre/Camberwell Rd (Camberwell),145.06063500,"1,2","75"
"21065",-37.83480900,43-Camberwell Civic Centre/Camberwell Rd (Camberwell),145.06066300,"1,2","75"
"21066",-37.83592400,44-Trafalgar Rd/Camberwell Rd (Camberwell),145.06215600,"1,2","75"
"21067",-37.83641700,44-Trafalgar Rd/Camberwell Rd (Camberwell),145.06251800,"1,2","75"
"21068",-37.83770600,45-Bowen St/Camberwell Rd (Camberwell),145.06420000,"1,2","75"
"21069",-37.83791300,45-Bowen St/Camberwell Rd (Camberwell),145.06419500,"1,2","75"
"21070",-37.83940400,46-Christowel St/Camberwell Rd (Camberwell),145.06607600,"1,2","75"
"21071",-37.83981400,46-Acheron Ave/Camberwell Rd (Camberwell),145.06630400,"1,2","75"
"21072",-37.84080900,47-Maple Cres/Camberwell Rd (Camberwell),145.06764200,"1,2","75"
"21073",-37.84115400,47-Orange Gr/Camberwell Rd (Camberwell),145.06781500,"1,2","75"
"21074",-37.84212200,48-Orrong Cres/Camberwell Rd (Camberwell),145.06911900,"1,2","75"
"21075",-37.84233900,48-Glen Iris Rd/Camberwell Rd (Camberwell),145.06915900,"1,2","75"
"21076",-37.84414200,49-Tyrone St/Camberwell Rd (Camberwell),145.07143000,"1,2","75"
"21077",-37.84443200,49-Wilson Gr/Camberwell Rd (Camberwell),145.07152500,"1,2","75"
"21078",-37.84591400,50-Fordham Gardens/Camberwell Rd (Camberwell),145.07340700,"1,2","75"
"21079",-37.84591100,50-Smith Rd/Camberwell Rd (Camberwell),145.07320300,"1,2","75"
"21080",-37.84784300,51-Toorak Rd/Camberwell Rd (Camberwell),145.07561800,"1,2","75"
"21081",-37.84820000,52-Summerhill Rd/Toorak Rd (Camberwell),145.07707500,"1,2","75"
"21082",-37.84835900,52-Summerhill Rd/Toorak Rd (Camberwell),145.07741200,"1,2","75"
"21083",-37.84873700,53-Highfield Rd/Toorak Rd (Camberwell),145.08181200,"1,2","75"
"21084",-37.84891600,53-Lithgow St/Toorak Rd (Camberwell),145.08229600,"1,2","75"
"21085",-37.84903900,54-Oberwyl Rd/Toorak Rd (Camberwell),145.08430400,"1,2","75"
"21086",-37.84919700,54-Grandview Ave/Toorak Rd (Camberwell),145.08459600,"1,2","75"
"21087",-37.84932100,55-Through Rd/Toorak Rd (Camberwell),145.08671800,"1,2","75"
"21088",-37.84951900,55-Beryl St/Toorak Rd (Camberwell),145.08725800,"1,2","75"
"21089",-37.84965600,56-Barkly St/Toorak Rd (Camberwell),145.08959600,"1,2","75"
"21090",-37.84985300,56-Alfred Rd/Toorak Rd (Camberwell),145.09005700,"1,2","75"
"21091",-37.84998100,57-Fairview Ave/Toorak Rd (Camberwell),145.09236100,"1,2","75"
"21092",-37.85015800,57-Queens Pde/Toorak Rd (Camberwell),145.09273100,"1,2","75"
"21093",-37.85032800,58-Warrigal Rd/Burwood Hwy (Camberwell),145.09546600,"1,2","75"
"21094",-37.85043300,58-Warrigal Rd/Burwood Hwy (Burwood),145.09583800,"1,2","75"
"21095",-37.85070000,59-Somers St/Burwood Hwy (Burwood),145.09897900,"1,2","75"
"21096",-37.85074200,59-Gilmour St/Burwood Hwy (Burwood),145.09874000,"1,2","75"
"21097",-37.85044400,60-Roslyn St/Burwood Hwy (Burwood),145.10208900,"1,2","75"
"21098",-37.85050800,60-Millicent St/Burwood Hwy (Burwood),145.10215500,"1,2","75"
"21099",-37.84996700,61-Presbyterian Ladies College/Burwood Hwy (Burwood),145.10547600,"1,2","75"
"21100",-37.84998000,61-Presbyterian Ladies College/Burwood Hwy (Burwood),145.10571500,"1,2","75"
"21101",-37.84950500,62-Elgar Rd/Burwood Hwy (Burwood),145.10870400,"1,2","75"
"21102",-37.84959100,62-Elgar Rd/Burwood Hwy (Burwood),145.10844100,"1,2","75"
"21964",-37.83159400,40-Camberwell Junction/Camberwell Rd (Camberwell),145.05692900,"1,2","75"
"2232",-37.86398500,49-Tooronga Rd/Wattletree Rd (Malvern East),145.04027800,"1","5"
"19082",-37.88993800,63-Maroona Rd/Glenhuntly Rd (Carnegie),145.04725500,"1","67"
"19083",-37.89023700,64-Mernda Ave/Glenhuntly Rd (Carnegie),145.04948700,"1","67"
"19084",-37.89051700,65-Mimosa Rd/Glenhuntly Rd (Carnegie),145.05175400,"1","67"
"19085",-37.89078100,66-Truganini Rd/Glenhuntly Rd (Carnegie),145.05406600,"1","67"
"19086",-37.89265400,67-Centre Rd/Truganini Rd (Carnegie),145.05449500,"1","67"
"19302",-37.82884200,32-Glenferrie Rd/Riversdale Rd (Hawthorn),145.03447100,"1","75,70"
"19303",-37.82915900,33-Berkeley St/Riversdale Rd (Hawthorn),145.03725800,"1","75,70"
"19408",-37.81211300,46-Balwyn Cinema/Whitehorse Rd (Balwyn),145.07578500,"1","109"
"19411",-37.81355200,49-Northcote Ave/Whitehorse Rd (Balwyn),145.08775500,"1,2","109"
"19412",-37.81403000,50-Wharton St/Whitehorse Rd (Surrey Hills),145.09168500,"1,2","109"
"19413",-37.81440500,51-Narrak Rd/Whitehorse Rd (Balwyn),145.09478700,"1,2","109"
"19414",-37.81494600,53-Union Rd/Whitehorse Rd (Balwyn),145.09924900,"1,2","109"
"19416",-37.81540500,54-Inglisby Rd/Whitehorse Rd (Mont Albert),145.10312300,"1,2","109"
"19417",-37.81616400,55-Hood St/Whitehorse Rd (Mont Albert),145.10945300,"1,2","109"
"19421",-37.83760900,61-Elgar Rd/Riversdale Rd (Surrey Hills),145.11037200,"1","70"
"19422",-37.83709000,60-Ferndale St/Riversdale Rd (Surrey Hills),145.10665800,"1","70"
"19423",-37.83685900,59-Alandale St/Riversdale Rd (Surrey Hills),145.10464100,"1","70"
"19424",-37.83653100,58-Wattle Park/Riversdale Rd (Surrey Hills),145.10218400,"1","70"
"19425",-37.83620400,57-Glendale St/Riversdale Rd (Surrey Hills),145.10030600,"1","70"
"19426",-37.83589700,56-Warrigal Rd/Riversdale Rd (Surrey Hills),145.09805300,"1","70"
"19427",-37.83557500,55-Union Rd/Riversdale Rd (Surrey Hills),145.09540200,"1","70"
"19428",-37.83534100,54-Through Rd/Riversdale Rd (Surrey Hills),145.09319200,"1","70"
"19429",-37.83508800,53-Essex Rd/Riversdale Rd (Surrey Hills),145.09094900,"1","70"
"19430",-37.83475400,52-Lockhart St/Riversdale Rd (Camberwell),145.08814000,"1","70"
"19431",-37.83436700,51-Highfield Rd/Riversdale Rd (Canterbury),145.08485400,"1","70"
"19432",-37.83411900,50-Wattle Valley Rd/Riversdale Rd (Canterbury),145.08120200,"1","70"
"19433",-37.83389000,49-Glyndon Rd/Riversdale Rd (Camberwell),145.07933300,"1","70"
"19434",-37.83365500,48-Cooloongatta Rd/Riversdale Rd (Camberwell),145.07710100,"1","70"
"19435",-37.83311000,47-Willow Gr/Riversdale Rd (Canterbury),145.07239900,"1","70"
"19436",-37.83269800,46-Spencer Rd/Riversdale Rd (Canterbury),145.06930800,"1","70"
"19438",-37.83233600,44-Derby St/Riversdale Rd (Camberwell),145.06588600,"1","70"
"19439",-37.83206200,43-Trafalgar Rd/Riversdale Rd (Camberwell),145.06350700,"1","70"
"19440",-37.83168400,42-Fermanagh Rd/Riversdale Rd (Camberwell),145.06019900,"1","70"
"19441",-37.83140700,41-Camberwell Market/517 Riversdale Rd (Camberwell),145.05762700,"1","70"
"19442",-37.83127000,40-Camberwell Junction/Riversdale Rd (Hawthorn East),145.05642600,"1","75,70"
"19443",-37.83102800,39-Camberwell Tram Depot/Riversdale Rd (Hawthorn East),145.05430800,"1","75,70"
"19444",-37.83069000,38-Hastings Rd/Riversdale Rd (Hawthorn East),145.05134000,"1","75,70"
"19445",-37.83025900,37-Tooronga Rd/Riversdale Rd (Hawthorn East),145.04763600,"1","75,70"
"19446",-37.82977600,36-Auburn Rd/Riversdale Rd (Hawthorn East),145.04350200,"1","75,70"
"19447",-37.82953700,35-Robinson Rd/Riversdale Rd (Hawthorn),145.04155400,"1","75,70"
"19448",-37.82917900,34-Kooyongkoot Rd/Riversdale Rd (Hawthorn),145.03847300,"1","75,70"
"19449",-37.82897100,33-Berkeley St/Riversdale Rd (Hawthorn),145.03679700,"1","75,70"
"7354",-37.86357200,48-Dixon St/Wattletree Rd (Malvern),145.03708400,"1","5"
"968",-37.86339300,48-Dixon St/Wattletree Rd (Malvern),145.03663400,"1","5"
"980",-37.86382700,49-Tooronga Rd/Wattletree Rd (Malvern East),145.03998700,"1","5"
"19781",-37.81787600,58-Box Hill Central/Whitehorse Rd (Box Hill),145.12234900,"1,2","109"
"19782",-37.81742100,57-Nelson Rd/Whitehorse Rd (Box Hill),145.11871400,"1,2","109"
"19783",-37.81688400,56-Elgar Rd/Whitehorse Rd (Box Hill),145.11443400,"1,2","109"
"21103",-37.84998900,63-Deakin University/Burwood Hwy (Burwood),145.11523800,"1,2","75"
"21104",-37.85008100,63-Deakin University/Burwood Hwy (Burwood),145.11540700,"1,2","75"
"21105",-37.85055100,64-Station St/Burwood Hwy (Burwood),145.11939500,"1,2","75"
"21106",-37.85060600,64-Station St/Burwood Hwy (Burwood),145.12058700,"1,2","75"
"21107",-37.85126000,65-Starling St/Burwood Hwy (Burwood),145.12598100,"1,2","75"
"21108",-37.85136400,65-Starling St/Burwood Hwy (Burwood),145.12631900,"1,2","75"
"21109",-37.85202000,66-Middleborough Rd/Burwood Hwy (Burwood),145.13183700,"1,2","75"
"21110",-37.85202300,66-Middleborough Rd/Burwood Hwy (Burwood),145.13321200,"1,2","75"
"21111",-37.85147900,67-Old Burwood Rd/Burwood Hwy (Burwood East),145.13813600,"1,2","75"
"21112",-37.85148200,67-Old Burwood Rd/Burwood Hwy (Burwood East),145.13829500,"1,2","75"
"21113",-37.85128600,68-Benwerrin Reserve/Burwood Hwy (Burwood East),145.14188000,"1,2","75"
"21114",-37.85137900,68-Benwerrin Reserve/Burwood Hwy (Burwood East),145.14203700,"1,2","75"
"21115",-37.85185100,69-Keats St/Burwood Hwy (Burwood East),145.14624200,"1,2","75"
"21116",-37.85194200,69-Highview Gr/Burwood Hwy (Burwood East),145.14634200,"1,2","75"
"21117",-37.85257600,70-Blackburn Rd/Burwood Hwy (Burwood East),145.15112200,"1,2","75"
"21118",-37.85269400,70-Blackburn Rd/Burwood Hwy (Burwood East),145.15284700,"1,2","75"
"21119",-37.85362100,71-Sevenoaks Rd/Burwood Hwy (Burwood East),145.15854100,"1,2","75"
"21120",-37.85359200,71-Sevenoaks Rd/Burwood Hwy (Burwood East),145.15898500,"1,2","75"
"21121",-37.85436500,72-Lakeside Dr/Burwood Hwy (Burwood East),145.16463700,"1,2","75"
"21122",-37.85441400,72-Lakeside Dr/Burwood Hwy (Burwood East),145.16606800,"1,2","75"
"21123",-37.85476300,73-Springvale Rd/Burwood Hwy (Burwood East),145.16819600,"1,2","75"
"21124",-37.85493800,73-Springvale Rd/Burwood Hwy (Vermont South),145.17015800,"1,2","75"
"21125",-37.85554400,74-Stanley Rd/Burwood Hwy (Vermont South),145.17497400,"1,2","75"
"21126",-37.85555600,74-Stanley Rd/Burwood Hwy (Vermont South),145.17459800,"1,2","75"
"21127",-37.85644500,75-Vermont South Shopping Centre/Burwood Hwy (Vermont South),145.18193000,"1,2","75"
"19418",-37.81691100,56-Elgar Rd/Whitehorse Rd (Box Hill),145.11559200,"1,2","109"
"19419",-37.81745700,57-Nelson Rd/Whitehorse Rd (Box Hill),145.11986100,"1,2","109"
"18546",-37.78237500,26-Melbourne Zoo/Royal Park (Parkville),144.94928200,"1","58"
"18547",-37.78087200,27-Royal Park Station/Royal Park (Parkville),144.95092500,"1","58"
"18548",-37.77691700,28-Park St/Royal Park (Parkville),144.94949000,"1","58"
"18549",-37.77581400,29-Brunswick Rd/Royal Park (Parkville),144.94874800,"1","58"
"18550",-37.77256200,30-Union Square Shopping Centre/Grantham St (Brunswick West),144.94931500,"1","58"
"18551",-37.77029800,31-Dawson St/Grantham St (Brunswick West),144.94974100,"1","58"
"18552",-37.76992300,32-Foden St/Dawson St (Brunswick),144.94735600,"1","58"
"18553",-37.76959300,33-Daly St/Dawson St (Brunswick),144.94442500,"1","58"
"18554",-37.76761400,34-Smith St/Melville Rd (Brunswick West),144.94309500,"1","58"
"18555",-37.76491200,35-Victoria St/Melville Rd (Brunswick West),144.94368000,"1","58"
"18556",-37.76216200,36-Hope St/Melville Rd (Brunswick West),144.94415400,"1","58"
"16722",-37.76323200,25-Stewart St/Sydney Rd (Brunswick),144.96269500,"1","19"
"16723",-37.76557800,24-Brunswick Baptist Church/Sydney Rd (Brunswick),144.96230200,"1","19"
"16724",-37.76714100,23-Victoria St/Sydney Rd (Brunswick),144.96203200,"1","19"
"16725",-37.76894700,22-Albert St/Sydney Rd (Brunswick),144.96172100,"1","19"
"16726",-37.77164300,21-Brunswick Town Hall/Sydney Rd (Brunswick),144.96126100,"1","19"
"16727",-37.77484200,20-Barkly Square/115 Sydney Rd (Brunswick),144.96074200,"1","19"
"16728",-37.77759100,19-Brunswick Rd/Sydney Rd (Brunswick),144.96026900,"1","19"
"16729",-37.77937900,18-Princes Park/Royal Pde (Parkville),144.95993600,"1","19"
"16730",-37.78188800,17-Ievers St/Royal Pde (Parkville),144.95964000,"1","19"
"17328",-37.77938300,18-Princes Park/Royal Pde (Parkville),144.96015200,"1","19"
"17321",-37.76308300,25-Stewart St/Sydney Rd (Brunswick),144.96290400,"1","19"
"17322",-37.76535600,24-Blyth St/Sydney Rd (Brunswick),144.96251200,"1","19"
"17323",-37.76698200,23-Victoria St/Sydney Rd (Brunswick),144.96222900,"1","19"
"17324",-37.76876100,22-Albert St/Sydney Rd (Brunswick),144.96191900,"1","19"
"17325",-37.77136700,21-Glenlyon Rd/Sydney Rd (Brunswick),144.96147300,"1","19"
"17327",-37.77764700,19-Brunswick Rd/Sydney Rd (Brunswick),144.96039200,"1","19"
"17329",-37.78168400,17-Ievers St/Royal Pde (Parkville),144.95983800,"1","19"
"18066",-37.78261700,26-Melbourne Zoo/Royal Park (Parkville),144.94921900,"1","58"
"18067",-37.78075300,27-Royal Park Station/Royal Park (Parkville),144.95136000,"1","58"
"18068",-37.77724100,28-Park St/Royal Park (Parkville),144.94996900,"1","58"
"18069",-37.77553800,29-Brunswick Rd/Grantham St (Brunswick West),144.94891500,"1","58"
"18071",-37.77236700,30-Union Square Shopping Centre/Grantham St (Brunswick West),144.94952500,"1","58"
"18072",-37.77005100,31-Grantham St/Dawson St (Brunswick West),144.94953200,"1","58"
"18073",-37.76978900,32-Foden St/Dawson St (Brunswick),144.94738200,"1","58"
"18074",-37.76939900,33-South Daly St/Dawson St (Brunswick West),144.94416900,"1","58"
"18075",-37.76731100,34-Smith St/Melville Rd (Brunswick),144.94331900,"1","58"
"18076",-37.76470800,35-Victoria St/Melville Rd (Brunswick West),144.94389000,"1","58"
"18077",-37.76204000,36-Hope St/Melville Rd (Brunswick West),144.94438400,"1","58"
"21962",-37.77465600,20-Barkly Square/Sydney Rd (Brunswick),144.96092900,"1","19"
